[{"name":"Einundzwanzig 3 L\u00e4nder Eck","portalLink":"https:\/\/portal.einundzwanzig.space\/de\/meetup\/einundzwanzig-3-laender-eck","url":"https:\/\/t.me\/+HuY5FNSKjtpmZDAy","top":null,"left":null,"country":"DE","state":null,"city":"3 L\u00e4nder Eck Hessen BaW\u00fc Baye","longitude":9.10226,"latitude":49.577193,"twitter_username":null,"website":null,"simplex":null,"signal":null,"nostr":null,"next_event":null,"intro":null,"logo":null},{"name":"Bitcoin Meetup Halle (Saale)","portalLink":"https:\/\/portal.einundzwanzig.space\/de\/meetup\/bitcoin-meetup-halle-saale","url":"https:\/\/t.me\/+TmOgxEh8afc1NWQy","top":null,"left":null,"country":"DE","state":null,"city":"Halle (Saale)","longitude":11.9658,"latitude":51.48217,"twitter_username":null,"website":null,"simplex":null,"signal":null,"nostr":null,"next_event":null,"intro":null,"logo":null},{"name":"Baden Bitcoin Club","portalLink":"https:\/\/portal.einundzwanzig.space\/ch\/meetup\/baden-bitcoin-club","url":"https:\/\/bitcoinbaden.ch\/","top":null,"left":null,"country":"CH","state":null,"city":"Baden CH","longitude":8.30692,"latitude":47.47438,"twitter_username":"bitcoinbaden","website":"https:\/\/bitcoinbaden.ch\/","simplex":null,"signal":null,"nostr":"npub1pa2ap3wluzefx9dpyyafxj646lk5qj4xtvw0wa48msx8nnhrn4mq72lxqs","next_event":null,"intro":null,"logo":null},{"name":"Einundzwanzig Meetup Pf\u00e4ffikon SZ","portalLink":"https:\/\/portal.einundzwanzig.space\/ch\/meetup\/einundzwanzig-meetup-pfaeffikon-sz","url":"https:\/\/t.me\/+sdT8TNEJIMc2Y2U8","top":null,"left":null,"country":"CH","state":null,"city":"Pf\u00e4ffikon SZ","longitude":8.795516,"latitude":47.209298,"twitter_username":null,"website":"https:\/\/www.blockzeit.ch\/stammtisch","simplex":null,"signal":null,"nostr":null,"next_event":null,"intro":null,"logo":null},{"name":"Einundzwanzig Basel","portalLink":"https:\/\/portal.einundzwanzig.space\/ch\/meetup\/einundzwanzig-basel","url":"https:\/\/t.me\/EinundzwanzigBS","top":80,"left":19,"country":"CH","state":["Basel"],"city":"Basel","longitude":7.5878261,"latitude":47.5581077,"twitter_username":"einundzwanzigBS","website":"https:\/\/bitcoin-basel.ch\/","simplex":null,"signal":null,"nostr":null,"next_event":null,"intro":null,"logo":null},{"name":"Einundzwanzig Rheinisch-Bergischer Kreis","portalLink":"https:\/\/portal.einundzwanzig.space\/de\/meetup\/einundzwanzig-rheinisch-bergischer-kreis","url":"https:\/\/t.me\/+IT8SUzDOLtZmM2Ey","top":null,"left":null,"country":"DE","state":null,"city":"Rheinisch-Bergischer Kreis","longitude":7.13648,"latitude":50.991772,"twitter_username":null,"website":null,"simplex":null,"signal":null,"nostr":null,"next_event":null,"intro":null,"logo":null},{"name":"Einundzwanzig Saarlouis","portalLink":"https:\/\/portal.einundzwanzig.space\/de\/meetup\/einundzwanzig-saarlouis","url":"https:\/\/t.me\/EinundzwanzigSaarlouis","top":57,"left":12,"country":"DE","state":["Saarland"],"city":"Saarlouis","longitude":6.75034,"latitude":49.315681,"twitter_username":"21Saarlouis","website":"https:\/\/twitter.com\/21Saarlouis","simplex":null,"signal":null,"nostr":"npub1qhjtcfcreannyfvfv8yzmz0krzpgep7tyv0tvm9cldw5jeqes6fqeks79t","next_event":null,"intro":null,"logo":null},{"name":"Einundzwanzig Portugal","portalLink":"https:\/\/portal.einundzwanzig.space\/pt\/meetup\/einundzwanzig-portugal","url":"https:\/\/t.me\/EinundzwanzigPortugal","top":null,"left":null,"country":"PT","state":["Portugal"],"city":"Portugal","longitude":-8.1353519,"latitude":39.6621648,"twitter_username":null,"website":null,"simplex":null,"signal":null,"nostr":null,"next_event":null,"intro":null,"logo":null},{"name":"Einundzwanzig Biel\/Bienne","portalLink":"https:\/\/portal.einundzwanzig.space\/ch\/meetup\/einundzwanzig-bielbienne","url":null,"top":null,"left":null,"country":"CH","state":null,"city":"Biel\/Bienne","longitude":7.2430235410705,"latitude":47.133082805085,"twitter_username":"YenaTattoo","website":null,"simplex":null,"signal":null,"nostr":null,"next_event":null,"intro":null,"logo":null},{"name":"Kirchheim Teck ","portalLink":"https:\/\/portal.einundzwanzig.space\/de\/meetup\/kirchheim-teck","url":"https:\/\/t.me\/einundzwanzigStuttgart","top":null,"left":null,"country":"DE","state":null,"city":"Kirchheim Teck ","longitude":9.45394,"latitude":48.64769,"twitter_username":null,"website":null,"simplex":null,"signal":null,"nostr":null,"next_event":null,"intro":null,"logo":null},{"name":"TWENTY-ONE USA","portalLink":"https:\/\/portal.einundzwanzig.space\/us\/meetup\/twenty-one-usa","url":"https:\/\/t.me\/+YChlvzkBt1xkYjRi","top":null,"left":null,"country":"US","state":null,"city":"United-States","longitude":-101.905937,"latitude":39.89288,"twitter_username":"twentyone_usa","website":null,"simplex":null,"signal":null,"nostr":null,"next_event":null,"intro":null,"logo":null},{"name":"Bitcoin Meetup Harz","portalLink":"https:\/\/portal.einundzwanzig.space\/de\/meetup\/bitcoin-meetup-harz","url":"https:\/\/t.me\/BTCMeetupHarz","top":null,"left":null,"country":"DE","state":null,"city":"Harz","longitude":10.974099,"latitude":51.816475,"twitter_username":"MeetupHarz","website":null,"simplex":null,"signal":null,"nostr":null,"next_event":null,"intro":null,"logo":null},{"name":"Einundzwanzig Hildesheim","portalLink":"https:\/\/portal.einundzwanzig.space\/de\/meetup\/einundzwanzig-hildesheim","url":"https:\/\/t.me\/EinundzwanzigHildesheim","top":null,"left":null,"country":"DE","state":null,"city":"Hildesheim","longitude":9.951,"latitude":52.150902,"twitter_username":null,"website":null,"simplex":null,"signal":null,"nostr":null,"next_event":null,"intro":null,"logo":null},{"name":"Einundzwanzig M\u00fcnster","portalLink":"https:\/\/portal.einundzwanzig.space\/de\/meetup\/einundzwanzig-muenster","url":"https:\/\/t.me\/Einundzwanzig_MS","top":null,"left":null,"country":"DE","state":null,"city":"M\u00fcnster","longitude":7.626135,"latitude":51.960667,"twitter_username":"einundzwanzigMS","website":null,"simplex":null,"signal":null,"nostr":null,"next_event":{"start":"2025-01-04 18:00:00","portalLink":"https:\/\/portal.einundzwanzig.space\/de\/meetup\/meetup-events\/l\/1377","location":"Wird in der Telegram Gruppe bekannt gegeben","description":"Wir treffen uns jeden 1. Samstag im Monat in M\u00fcnster in wechselnden Lokalit\u00e4ten. Der genaue Ort wird immer rechtzeitig bekannt gegeben.","link":null,"attendees":0,"nostr_note":"a76abb90bef46e57b067082469266edf8d60c63827b3d9e4c1abf47850a53eba"},"intro":null,"logo":null},{"name":"Einundzwanzig Hennef","portalLink":"https:\/\/portal.einundzwanzig.space\/de\/meetup\/einundzwanzig-hennef","url":"https:\/\/t.me\/einundzwanzig_hennef","top":null,"left":null,"country":"DE","state":null,"city":"Hennef","longitude":7.346507,"latitude":50.760273,"twitter_username":null,"website":null,"simplex":null,"signal":null,"nostr":null,"next_event":null,"intro":null,"logo":null},{"name":"Bitcoin Mallorca (MBD)","portalLink":"https:\/\/portal.einundzwanzig.space\/es\/meetup\/bitcoin-mallorca-mbd","url":"https:\/\/www.meetup.com\/de-DE\/Bitcoin-Mallorca\/","top":null,"left":null,"country":"ES","state":null,"city":"Palma","longitude":2.64995,"latitude":39.56945,"twitter_username":null,"website":null,"simplex":null,"signal":null,"nostr":null,"next_event":null,"intro":null,"logo":null},{"name":"Bitcoin G\u00f6rlitz","portalLink":"https:\/\/portal.einundzwanzig.space\/de\/meetup\/bitcoin-goerlitz","url":"https:\/\/bitcoin-goerlitz.de","top":38,"left":78.5,"country":"DE","state":["Sachsen"],"city":"G\u00f6rlitz","longitude":14.991018,"latitude":51.1563185,"twitter_username":null,"website":null,"simplex":null,"signal":null,"nostr":null,"next_event":null,"intro":null,"logo":null},{"name":"Eenanzwanzeg L\u00ebtzebuerg","portalLink":"https:\/\/portal.einundzwanzig.space\/lu\/meetup\/eenanzwanzeg-letzebuerg","url":"https:\/\/t.me\/einundzwanzigLU","top":56,"left":5,"country":"LU","state":["Luxembourg"],"city":"Luxembourg","longitude":6.1296751,"latitude":49.8158683,"twitter_username":"EinundzwanzigLU","website":null,"simplex":null,"signal":null,"nostr":null,"next_event":null,"intro":null,"logo":null},{"name":"Einundzwanzig S\u00fcdtirol","portalLink":"https:\/\/portal.einundzwanzig.space\/it\/meetup\/einundzwanzig-suedtirol","url":"https:\/\/t.me\/Einundzwanzig_Suedtirol","top":88,"left":51,"country":"IT","state":["S\u00fcdtirol"],"city":"S\u00fcdtirol","longitude":11.2302129,"latitude":46.65594557,"twitter_username":"SudtirolBitcoin","website":null,"simplex":null,"signal":null,"nostr":null,"next_event":null,"intro":null,"logo":null},{"name":"Einundzwanzig Schweiz","portalLink":"https:\/\/portal.einundzwanzig.space\/ch\/meetup\/einundzwanzig-schweiz","url":"https:\/\/t.me\/joinchat\/8-FBDoq3Y9hkODZk","top":87,"left":23,"country":"CH","state":["Bern","Luzern","Nidwalden","Z\u00fcrich","Zug","Solothurn"],"city":"Schweiz","longitude":8.2319736,"latitude":46.7985624,"twitter_username":null,"website":null,"simplex":null,"signal":null,"nostr":null,"next_event":null,"intro":null,"logo":null},{"name":"Dwadzie\u015bcia Jeden Wroc\u0142aw","portalLink":"https:\/\/portal.einundzwanzig.space\/pl\/meetup\/dwadziescia-jeden-wroclaw","url":"https:\/\/t.me\/DwadziesciaJedenPoznan","top":null,"left":null,"country":"PL","state":null,"city":"Wroc\u0142aw","longitude":17.038538,"latitude":51.107883,"twitter_username":null,"website":"https:\/\/dwadziesciajeden.pl\/","simplex":null,"signal":null,"nostr":null,"next_event":null,"intro":null,"logo":null},{"name":"Einundzwanzig Peine","portalLink":"https:\/\/portal.einundzwanzig.space\/de\/meetup\/einundzwanzig-peine","url":"https:\/\/t.me\/+6hl5Qy30mTFmODJi","top":null,"left":null,"country":"DE","state":null,"city":"Peine","longitude":10.22898,"latitude":52.323318,"twitter_username":null,"website":null,"simplex":null,"signal":null,"nostr":null,"next_event":null,"intro":null,"logo":null},{"name":"Einundzwanzig Nordburgenland","portalLink":"https:\/\/portal.einundzwanzig.space\/at\/meetup\/einundzwanzig-nordburgenland","url":"https:\/\/t.me\/Einundzwanzig_Meetup_Nordbgld","top":73,"left":97,"country":"AT","state":["Burgenland"],"city":"Nordburgenland","longitude":16.60317,"latitude":47.84248,"twitter_username":"21_nordbgld","website":null,"simplex":null,"signal":null,"nostr":null,"next_event":{"start":"2025-01-24 15:00:00","portalLink":"https:\/\/portal.einundzwanzig.space\/at\/meetup\/meetup-events\/l\/1714","location":"Neusiedl am See, vermutlich Joe's Pub","description":"Bitcoin-Meetup Nordburgenland\nBitcoin, Pizza & Bier","link":null,"attendees":0,"nostr_note":"8219ea70abd575d9cc68f1cf87afd05a3bced85c169a19c6d957a505b813d095"},"intro":null,"logo":null},{"name":"Einundzwanzig Freiburg","portalLink":"https:\/\/portal.einundzwanzig.space\/de\/meetup\/einundzwanzig-freiburg","url":"https:\/\/t.me\/Einundzwanzig_Freiburg","top":73,"left":21,"country":"DE","state":["Baden-W\u00fcrttemberg"],"city":"Freiburg","longitude":7.8494005,"latitude":47.9960901,"twitter_username":null,"website":null,"simplex":null,"signal":"https:\/\/signal.group\/#CjQKIKz0q1C1o0WgH9xjLfjBQKPMjdBBuB0OYMJV8MemK1msEhB8OSaVJ0pPFov6-cqzsWdO","nostr":null,"next_event":null,"intro":null,"logo":null},{"name":"Tjugoett Stockholm","portalLink":"https:\/\/portal.einundzwanzig.space\/se\/meetup\/tjugoett-stockholm","url":"https:\/\/t.me\/TjugoettStockholm","top":null,"left":null,"country":"SE","state":null,"city":"Stockholm","longitude":18.068581,"latitude":59.329323,"twitter_username":"TjugoettSthlm08","website":"https:\/\/twitter.com\/TjugoettSthlm08","simplex":null,"signal":null,"nostr":null,"next_event":null,"intro":null,"logo":null},{"name":"Einundzwanzig Heilbronn","portalLink":"https:\/\/portal.einundzwanzig.space\/de\/meetup\/einundzwanzig-heilbronn","url":"https:\/\/t.me\/einundzwanzigHeilbronn","top":62,"left":30,"country":"DE","state":["Baden-W\u00fcrttemberg"],"city":"Heilbronn","longitude":9.210879,"latitude":49.142693,"twitter_username":"EinundzwanzigHN","website":null,"simplex":null,"signal":"https:\/\/signal.group\/#CjQKIJN8NjA6YaEdqeYhIhGKSv5UjUcyEGX8PuVjHRibDk7DEhDDD3l8pOxj_XhFrEYd8ANq","nostr":null,"next_event":null,"intro":null,"logo":null},{"name":"Einundzwanzig Schafstall","portalLink":"https:\/\/portal.einundzwanzig.space\/de\/meetup\/einundzwanzig-schafstall","url":"https:\/\/t.me\/Einundzwanzig_Norden","top":null,"left":null,"country":"DE","state":null,"city":"Handeloh","longitude":9.83926,"latitude":53.24554,"twitter_username":null,"website":null,"simplex":null,"signal":null,"nostr":null,"next_event":null,"intro":null,"logo":null},{"name":"Einezw\u00e4nzg Solothurn","portalLink":"https:\/\/portal.einundzwanzig.space\/ch\/meetup\/einezwaenzg-solothurn","url":"https:\/\/t.me\/+o2gLvxb2SxFhNTI0","top":82,"left":16,"country":"CH","state":["Solothurn"],"city":"Solothurn","longitude":7.6698284,"latitude":47.31874,"twitter_username":null,"website":null,"simplex":null,"signal":null,"nostr":null,"next_event":null,"intro":null,"logo":null},{"name":"Einundzwanzig Karlsruhe","portalLink":"https:\/\/portal.einundzwanzig.space\/de\/meetup\/einundzwanzig-karlsruhe","url":"https:\/\/t.me\/BitcoinKarlsruhe","top":64,"left":25,"country":"DE","state":["Baden-W\u00fcrttemberg"],"city":"Karlsruhe","longitude":8.4034195,"latitude":49.0068705,"twitter_username":null,"website":null,"simplex":null,"signal":null,"nostr":null,"next_event":null,"intro":null,"logo":null},{"name":"Dwadzie\u015bcia Jeden Krak\u00f3w","portalLink":"https:\/\/portal.einundzwanzig.space\/pl\/meetup\/dwadziescia-jeden-krakow","url":"https:\/\/t.me\/krakowBTC","top":null,"left":null,"country":"PL","state":null,"city":"Krak\u00f3w","longitude":19.944981,"latitude":50.064651,"twitter_username":"21BitcoinPolska","website":"https:\/\/dwadziesciajeden.pl\/","simplex":null,"signal":null,"nostr":null,"next_event":null,"intro":null,"logo":null},{"name":"Einundzwanzig Reutlingen","portalLink":"https:\/\/portal.einundzwanzig.space\/de\/meetup\/einundzwanzig-reutlingen","url":"https:\/\/t.me\/+JBYyytK2NncyNTYy","top":null,"left":null,"country":"DE","state":null,"city":"Reutlingen","longitude":9.203804,"latitude":48.506939,"twitter_username":null,"website":null,"simplex":null,"signal":null,"nostr":null,"next_event":null,"intro":null,"logo":null},{"name":"Einundzwanzig Vulkaneifel","portalLink":"https:\/\/portal.einundzwanzig.space\/de\/meetup\/einundzwanzig-vulkaneifel","url":"https:\/\/t.me\/Einundzwanzig_Vulka","top":52,"left":12,"country":"DE","state":["Rheinland-Pfalz"],"city":"Ulmen","longitude":6.97981,"latitude":50.20976,"twitter_username":"EinundzwanzigVE","website":null,"simplex":null,"signal":null,"nostr":null,"next_event":null,"intro":null,"logo":null},{"name":"EINUNDZWANZIG Mannheim","portalLink":"https:\/\/portal.einundzwanzig.space\/de\/meetup\/einundzwanzig-mannheim-1","url":"https:\/\/t.me\/Einundzwanzig_MANNHEIM","top":null,"left":null,"country":"DE","state":null,"city":"Mannheim","longitude":8.4673098,"latitude":49.4892913,"twitter_username":null,"website":null,"simplex":null,"signal":null,"nostr":null,"next_event":null,"intro":null,"logo":null},{"name":"Zollernalb Balingen","portalLink":"https:\/\/portal.einundzwanzig.space\/de\/meetup\/zollernalb-balingen","url":"https:\/\/t.me\/+wNgJ6sTsTOljMjFi","top":null,"left":null,"country":"DE","state":null,"city":"03096","longitude":14.18417,"latitude":51.81263,"twitter_username":null,"website":null,"simplex":null,"signal":null,"nostr":null,"next_event":null,"intro":null,"logo":null},{"name":"Einundzwanzig Klagenfurt","portalLink":"https:\/\/portal.einundzwanzig.space\/at\/meetup\/einundzwanzig-klagenfurt","url":"https:\/\/t.me\/Einundzwanzig_Kaernten","top":88,"left":73,"country":"AT","state":["K\u00e4rnten"],"city":"Klagenfurt","longitude":14.3075976,"latitude":46.623943,"twitter_username":null,"website":null,"simplex":null,"signal":null,"nostr":null,"next_event":null,"intro":null,"logo":null},{"name":"HerBitcoin La Palma","portalLink":"https:\/\/portal.einundzwanzig.space\/es\/meetup\/herbitcoin-la-palma","url":"https:\/\/t.me\/HerBitcoin_LaPalma","top":null,"left":null,"country":"ES","state":null,"city":"Puntagorda , Canary Islands , La Palma","longitude":17.979409,"latitude":28.774647,"twitter_username":null,"website":null,"simplex":null,"signal":null,"nostr":null,"next_event":null,"intro":null,"logo":null},{"name":"Einundzwanzig Herrsching","portalLink":"https:\/\/portal.einundzwanzig.space\/de\/meetup\/einundzwanzig-herrsching","url":"https:\/\/t.me\/Einundzwanzig_Herrsching","top":73,"left":50,"country":"DE","state":["Bayern"],"city":"Herrsching","longitude":11.1703947,"latitude":47.9984622,"twitter_username":null,"website":null,"simplex":null,"signal":null,"nostr":null,"next_event":null,"intro":null,"logo":null},{"name":"Einundzwanzig Norderstedt ","portalLink":"https:\/\/portal.einundzwanzig.space\/de\/meetup\/einundzwanzig-norderstedt","url":"https:\/\/t.me\/+46HEKSCBI9dkMTEy","top":null,"left":null,"country":"DE","state":null,"city":"Norderstedt","longitude":9.98563,"latitude":53.6735,"twitter_username":"Jonas21Bitcoin","website":null,"simplex":null,"signal":null,"nostr":null,"next_event":null,"intro":null,"logo":null},{"name":"Einundzwanzig Ried i.I.","portalLink":"https:\/\/portal.einundzwanzig.space\/at\/meetup\/einundzwanzig-ried-ii","url":"https:\/\/t.me\/joinchat\/ilNlHsXTLqsyOTA0","top":70,"left":69,"country":"AT","state":["Ober\u00f6sterreich"],"city":"Ried i.I.","longitude":13.48714,"latitude":48.20823,"twitter_username":null,"website":null,"simplex":null,"signal":null,"nostr":null,"next_event":null,"intro":null,"logo":null},{"name":"Einundzwanzig Rosenheim","portalLink":"https:\/\/portal.einundzwanzig.space\/de\/meetup\/einundzwanzig-rosenheim","url":"https:\/\/t.me\/Einundzwanzig_Rosenheim","top":75,"left":57,"country":"DE","state":["Bayern"],"city":"Rosenheim","longitude":12.127262,"latitude":47.8539273,"twitter_username":null,"website":null,"simplex":null,"signal":null,"nostr":null,"next_event":null,"intro":null,"logo":null},{"name":"Charleston Bitcoin Meetup","portalLink":"https:\/\/portal.einundzwanzig.space\/us\/meetup\/charleston-bitcoin-meetup","url":null,"top":null,"left":null,"country":"US","state":null,"city":"Charleston","longitude":-79.931053,"latitude":32.776474,"twitter_username":"bitcoin_CHS","website":null,"simplex":null,"signal":null,"nostr":null,"next_event":null,"intro":null,"logo":null},{"name":"Einundzwanzig Hochtaunuskreis","portalLink":"https:\/\/portal.einundzwanzig.space\/de\/meetup\/einundzwanzig-hochtaunuskreis","url":"https:\/\/t.me\/bitcoin_hochtaunuskreis","top":50,"left":30,"country":"DE","state":["Hessen"],"city":"Hochtaunuskreis","longitude":8.5036801,"latitude":50.2853755,"twitter_username":null,"website":null,"simplex":null,"signal":null,"nostr":null,"next_event":null,"intro":null,"logo":null},{"name":"Bitcoin-Alps","portalLink":"https:\/\/portal.einundzwanzig.space\/ch\/meetup\/bitcoin-alps","url":"https:\/\/t.me\/bitcoin_alps","top":null,"left":null,"country":"CH","state":null,"city":"Berneroberland","longitude":7.6217,"latitude":46.7512,"twitter_username":"bitcoin_alps","website":"https:\/\/www.bitcoin-alps.ch","simplex":null,"signal":null,"nostr":"npub1ur0jtnmrm67zr4xka8hhfluj0uk40l3gwhwzfzfy8nuem29ffg7qgszmps","next_event":null,"intro":null,"logo":null},{"name":"Einundzwanzig Niederrhein","portalLink":"https:\/\/portal.einundzwanzig.space\/de\/meetup\/niederrhein-einundzwanzig-meetups","url":"https:\/\/t.me\/niederrheineinundzwanzig","top":null,"left":null,"country":"DE","state":null,"city":"Niederrhein","longitude":6.69385,"latitude":51.599411,"twitter_username":null,"website":null,"simplex":null,"signal":null,"nostr":null,"next_event":null,"intro":null,"logo":null},{"name":"Einundzwanzig Gummersbach","portalLink":"https:\/\/portal.einundzwanzig.space\/de\/meetup\/einundzwanzig-gummersbach","url":"https:\/\/t.me\/Einundzwanzig_Gummersbach","top":null,"left":null,"country":"DE","state":null,"city":"Gummersbach","longitude":7.56543,"latitude":51.028351,"twitter_username":null,"website":null,"simplex":null,"signal":null,"nostr":null,"next_event":null,"intro":null,"logo":null},{"name":"Bitcoin Bern","portalLink":"https:\/\/portal.einundzwanzig.space\/ch\/meetup\/bitcoin-bern","url":"https:\/\/www.meetup.com\/de-DE\/bitcoin-bern\/events\/","top":85,"left":17,"country":"CH","state":["Bern"],"city":"Bern","longitude":7.4514512,"latitude":46.9482713,"twitter_username":null,"website":null,"simplex":null,"signal":null,"nostr":null,"next_event":null,"intro":null,"logo":null},{"name":"einundzwanzig Moers","portalLink":"https:\/\/portal.einundzwanzig.space\/de\/meetup\/einundzwanzig-moers","url":"https:\/\/t.me\/einundzwanzigMoers","top":null,"left":null,"country":"DE","state":null,"city":"Moers","longitude":6.62175,"latitude":51.453049,"twitter_username":null,"website":null,"simplex":null,"signal":null,"nostr":null,"next_event":null,"intro":null,"logo":null},{"name":"Einundzwanzig Celle - ResidenzstadtMeetup","portalLink":"https:\/\/portal.einundzwanzig.space\/de\/meetup\/einundzwanzig-celle-residenzstadtmeetup","url":"https:\/\/t.me\/einundzwanzig_celle","top":null,"left":null,"country":"DE","state":null,"city":"Celle","longitude":10.07858,"latitude":52.621922,"twitter_username":null,"website":null,"simplex":null,"signal":null,"nostr":null,"next_event":null,"intro":null,"logo":null},{"name":"Einundzwanzig Amberg-Sulzbach","portalLink":"https:\/\/portal.einundzwanzig.space\/de\/meetup\/einundzwanzig-amberg-sulzbach","url":"https:\/\/t.me\/+pJ1EuA1x16JmYjc6","top":null,"left":null,"country":"DE","state":null,"city":"Amberg","longitude":11.858728,"latitude":49.4454211,"twitter_username":null,"website":null,"simplex":null,"signal":null,"nostr":null,"next_event":null,"intro":null,"logo":null},{"name":"EINUNDZWANZIG M\u00fcnchen","portalLink":"https:\/\/portal.einundzwanzig.space\/de\/meetup\/einundzwanzig-muenchen","url":"https:\/\/t.me\/EinundzwanzigM","top":null,"left":null,"country":"DE","state":null,"city":"M\u00fcnchen","longitude":11.5753822,"latitude":48.1371079,"twitter_username":"EinundzwanzigM","website":null,"simplex":null,"signal":null,"nostr":null,"next_event":null,"intro":null,"logo":null},{"name":"Einundzwanzig Gran Canaria","portalLink":"https:\/\/portal.einundzwanzig.space\/es\/meetup\/einundzwanzig-gran-canaria","url":"https:\/\/t.me\/GranCanaria21","top":null,"left":null,"country":"ES","state":["Canaria"],"city":"Gran Canaria","longitude":-15.606,"latitude":27.931,"twitter_username":null,"website":null,"simplex":null,"signal":null,"nostr":null,"next_event":null,"intro":null,"logo":null},{"name":"Asheville Bitcoiners","portalLink":"https:\/\/portal.einundzwanzig.space\/us\/meetup\/asheville-bitcoiners","url":null,"top":null,"left":null,"country":"US","state":null,"city":"Asheville","longitude":-82.550041,"latitude":35.595909,"twitter_username":"avlbitcoiners","website":null,"simplex":null,"signal":null,"nostr":null,"next_event":null,"intro":null,"logo":null},{"name":"Einundzwanzig Hamburg","portalLink":"https:\/\/portal.einundzwanzig.space\/de\/meetup\/einundzwanzig-hamburg","url":"https:\/\/t.me\/Einundzwanzig_HH","top":17,"left":38,"country":"DE","state":["Hamburg","Bremen","Niedersachsen"],"city":"Hamburg","longitude":9.993682,"latitude":53.551086,"twitter_username":null,"website":null,"simplex":null,"signal":null,"nostr":null,"next_event":{"start":"2024-12-26 18:00:00","portalLink":"https:\/\/portal.einundzwanzig.space\/de\/meetup\/meetup-events\/l\/1404","location":"Hamburg Sternschanze","description":"Absinth Bar\nSchanzenstra\u00dfe 99\n20357 Hamburg","link":"https:\/\/absinth-bar.com\/","attendees":0,"nostr_note":"c83321f3c2d83f38d7b7581fe400f60f71a1e879b79353c453a8accb66405991"},"intro":null,"logo":null},{"name":"Einundzwanzig Ausserfern","portalLink":"https:\/\/portal.einundzwanzig.space\/at\/meetup\/einundzwanzig-ausserfern","url":"https:\/\/t.me\/einundzwanzig_AUSSERFERN","top":null,"left":null,"country":"AT","state":null,"city":"Reutte","longitude":10.71948,"latitude":47.48748,"twitter_username":null,"website":null,"simplex":"https:\/\/simplex.chat\/contact#\/?v=2-7&smp=smp%3A%2F%2FZKe4uxF4Z_aLJJOEsC-Y6hSkXgQS5-oc442JQGkyP8M%3D%40smp17.simplex.im%2F3Xkuh5xFq6x78ANTngeK1B_-WVe-42k1%23%2F%3Fv%3D1-3%26dh%3DMCowBQYDK2VuAyEAWvNuqmSo0HKlw1JM-HUscI05-IzZwjxk8Pql7-QyI3s%253D%26srv%3Dogtwfxyi3h2h5weftjjpjmxclhb5ugufa5rcyrmg7j4xlch7qsr5nuqd.onion&data=%7B%22type%22%3A%22group%22%2C%22groupLinkId%22%3A%22CcALIilzR1YmBjt7-8NfuQ%3D%3D%22%7D","signal":null,"nostr":null,"next_event":null,"intro":null,"logo":null},{"name":"Einundzwanzig Rostock","portalLink":"https:\/\/portal.einundzwanzig.space\/de\/meetup\/einundzwanzig-rostock","url":"https:\/\/t.me\/EinungzwanzigRostock","top":null,"left":null,"country":"DE","state":null,"city":"Rostock","longitude":12.099147,"latitude":54.092442,"twitter_username":"EinundzwanzigRO","website":"https:\/\/21rostock.de","simplex":null,"signal":null,"nostr":null,"next_event":null,"intro":null,"logo":null},{"name":"Einundzwanzig Osnabr\u00fcck","portalLink":"https:\/\/portal.einundzwanzig.space\/de\/meetup\/einundzwanzig-osnabrueck","url":"https:\/\/t.me\/Einundzwanzig_OS","top":29,"left":27,"country":"DE","state":["Niedersachsen"],"city":"Osnabr\u00fcck","longitude":8.1453352,"latitude":51.8260823,"twitter_username":null,"website":null,"simplex":null,"signal":null,"nostr":null,"next_event":null,"intro":null,"logo":null},{"name":"Einundzwanzig Winterthur - BITCOIN WINTI","portalLink":"https:\/\/portal.einundzwanzig.space\/ch\/meetup\/einundzwanzig-winterthur-bitcoin-winti","url":"https:\/\/t.me\/+VOwLjn6WBilkM2U0","top":null,"left":null,"country":"CH","state":null,"city":"Winterthur","longitude":8.72616,"latitude":47.499882,"twitter_username":null,"website":null,"simplex":null,"signal":null,"nostr":null,"next_event":null,"intro":null,"logo":null},{"name":"Einundzwanzig Liechtenstein","portalLink":"https:\/\/portal.einundzwanzig.space\/li\/meetup\/einundzwanzig-liechtenstein","url":"https:\/\/t.me\/joinchat\/0UnzuwPmiitlMzE0","top":84,"left":35,"country":"LI","state":["Liechtenstein"],"city":"Liechtenstein","longitude":9.5531527,"latitude":47.1416307,"twitter_username":null,"website":null,"simplex":null,"signal":null,"nostr":null,"next_event":null,"intro":null,"logo":null},{"name":"Einundzwanzig Memmingen","portalLink":"https:\/\/portal.einundzwanzig.space\/de\/meetup\/einundzwanzig-memmingen","url":"https:\/\/t.me\/BTCOnlyMM21","top":73,"left":40,"country":"DE","state":["Bayern"],"city":"Memmingen","longitude":10.181319,"latitude":47.9867696,"twitter_username":null,"website":null,"simplex":null,"signal":null,"nostr":null,"next_event":null,"intro":null,"logo":null},{"name":"Einundzwanzig Bonn","portalLink":"https:\/\/portal.einundzwanzig.space\/de\/meetup\/einundzwanzig-bonn","url":"https:\/\/t.me\/einundzwanzig_bonn","top":45,"left":18,"country":"DE","state":["Nordrhein-Westfalen"],"city":"Bonn","longitude":7.10066,"latitude":50.735851,"twitter_username":null,"website":null,"simplex":null,"signal":null,"nostr":null,"next_event":null,"intro":null,"logo":null},{"name":"Einundzwanzig Vorarlberg","portalLink":"https:\/\/portal.einundzwanzig.space\/at\/meetup\/einundzwanzig-vorarlberg","url":"https:\/\/t.me\/BitcoinVorarlberg","top":81,"left":37,"country":"AT","state":["Vorarlberg"],"city":"Vorarlberg","longitude":9.9166667,"latitude":47.25,"twitter_username":null,"website":null,"simplex":null,"signal":null,"nostr":null,"next_event":null,"intro":null,"logo":null},{"name":"Einundzwanzig Cham","portalLink":"https:\/\/portal.einundzwanzig.space\/de\/meetup\/einundzwanzig-cham","url":"https:\/\/t.me\/BitcoinMeetupCham","top":60,"left":62,"country":"DE","state":["Bayern"],"city":"Cham","longitude":12.66754,"latitude":49.219311,"twitter_username":null,"website":null,"simplex":"https:\/\/simplex.chat\/contact#\/?v=2-7&smp=smp%3A%2F%2FN_McQS3F9TGoh4ER0QstUf55kGnNSd-wXfNPZ7HukcM%3D%40smp19.simplex.im%2Fvs2_lLAT9UO0_bWzA9V9qNPgnqjap06O%23%2F%3Fv%3D1-3%26dh%3DMCowBQYDK2VuAyEASSuZdvMWQ2dRJLhvQ_VXw5IkI9zvcfx-LgZvzdppNn4%253D%26srv%3Di53bbtoqhlc365k6kxzwdp5w3cdt433s7bwh3y32rcbml2vztiyyz5id.onion&data=%7B%22type%22%3A%22group%22%2C%22groupLinkId%22%3A%22s1xYlF07rpIm_aUFgvzT8w%3D%3D%22%7D","signal":null,"nostr":null,"next_event":null,"intro":null,"logo":null},{"name":"Einundzwanzig Jena","portalLink":"https:\/\/portal.einundzwanzig.space\/de\/meetup\/einundzwanzig-jena","url":"https:\/\/t.me\/einundzwanzigthueringen\/3028","top":null,"left":null,"country":"DE","state":null,"city":"Jena","longitude":11.58696,"latitude":50.92696,"twitter_username":null,"website":null,"simplex":null,"signal":null,"nostr":null,"next_event":null,"intro":null,"logo":null},{"name":"Einundzwanzig Norddeutschland","portalLink":"https:\/\/portal.einundzwanzig.space\/de\/meetup\/einundzwanzig-norddeutschland","url":"https:\/\/t.me\/Einundzwanzig_Norden","top":19,"left":37,"country":"DE","state":["Hamburg","Bremen","Niedersachsen"],"city":"Handeloh","longitude":9.83926,"latitude":53.24554,"twitter_username":null,"website":null,"simplex":null,"signal":null,"nostr":null,"next_event":null,"intro":null,"logo":null},{"name":"Bitcoin Z\u00fcrich (Beginners)","portalLink":"https:\/\/portal.einundzwanzig.space\/ch\/meetup\/bitcoin-zuerich-beginners","url":"https:\/\/www.meetup.com\/de-DE\/bitcoin-4-beginners-meetup-zurich\/","top":82.5,"left":27,"country":"CH","state":["Z\u00fcrich"],"city":"Z\u00fcrich","longitude":8.5410422,"latitude":47.3744489,"twitter_username":null,"website":"https:\/\/www.meetup.com\/de-DE\/bitcoin-4-beginners-meetup-zurich\/","simplex":null,"signal":null,"nostr":null,"next_event":null,"intro":null,"logo":null},{"name":"Einundzwanzig Marburg","portalLink":"https:\/\/portal.einundzwanzig.space\/de\/meetup\/einundzwanzig-marburg","url":"https:\/\/t.me\/+jMuRB6BGTPdiYzQy","top":null,"left":null,"country":"DE","state":null,"city":"Marburg","longitude":8.76919,"latitude":50.81478,"twitter_username":null,"website":null,"simplex":null,"signal":null,"nostr":null,"next_event":null,"intro":null,"logo":null},{"name":"Einundzwanzig Amstetten","portalLink":"https:\/\/portal.einundzwanzig.space\/at\/meetup\/einundzwanzig-amstetten","url":"https:\/\/t.me\/+t08TLbdRTj1iMmU0","top":null,"left":null,"country":"AT","state":null,"city":"Amstetten","longitude":14.87145,"latitude":48.123341,"twitter_username":null,"website":null,"simplex":null,"signal":null,"nostr":null,"next_event":null,"intro":null,"logo":null},{"name":"Einundzwanzig Sauerland","portalLink":"https:\/\/portal.einundzwanzig.space\/de\/meetup\/einundzwanzig-sauerland","url":"https:\/\/t.me\/einundzwanzig_sauerland","top":35,"left":30,"country":"DE","state":["Nordrhein-Westfalen"],"city":"Sauerland","longitude":8.0475484,"latitude":51.2609835,"twitter_username":null,"website":null,"simplex":null,"signal":null,"nostr":null,"next_event":null,"intro":null,"logo":null},{"name":"Einundzwanzig Elbe-Elster","portalLink":"https:\/\/portal.einundzwanzig.space\/de\/meetup\/einundzwanzig-elbe-elster","url":"https:\/\/t.me\/Einundzwanzig_EE","top":33,"left":64,"country":"DE","state":["Brandenburg"],"city":"Elbe-Elster","longitude":13.4804916,"latitude":51.6273649,"twitter_username":null,"website":null,"simplex":null,"signal":null,"nostr":null,"next_event":null,"intro":null,"logo":null},{"name":"Einundzwanzig Erfurt","portalLink":"https:\/\/portal.einundzwanzig.space\/de\/meetup\/einundzwanzig-erfurt","url":"https:\/\/t.me\/einundzwanzigthueringen\/3030","top":null,"left":null,"country":"DE","state":null,"city":"Erfurt","longitude":11.02988,"latitude":50.984768,"twitter_username":null,"website":null,"simplex":null,"signal":null,"nostr":null,"next_event":null,"intro":null,"logo":null},{"name":"Einundzwanzig Ost-Brandenburg","portalLink":"https:\/\/portal.einundzwanzig.space\/de\/meetup\/einundzwanzig-ost-brandenburg","url":"https:\/\/t.me\/einundzwanzig_bbost","top":null,"left":null,"country":"DE","state":null,"city":"M\u00fcncheberg","longitude":14.13,"latitude":52.505,"twitter_username":null,"website":null,"simplex":null,"signal":null,"nostr":null,"next_event":null,"intro":null,"logo":null},{"name":"Einundzwanzig Bitburg","portalLink":"https:\/\/portal.einundzwanzig.space\/de\/meetup\/einundzwanzig-bitburg","url":"https:\/\/t.me\/Einundzwanzigbitburg","top":null,"left":null,"country":"DE","state":null,"city":"Bitburg","longitude":6.52258,"latitude":49.974018,"twitter_username":"EinundzwanzigBi","website":null,"simplex":null,"signal":null,"nostr":null,"next_event":{"start":"2024-12-29 17:00:00","portalLink":"https:\/\/portal.einundzwanzig.space\/de\/meetup\/meetup-events\/l\/1706","location":"Restaurant Zagreb","description":null,"link":null,"attendees":0,"nostr_note":"b5d7875f40fbd3a74877501d92d60955bb346fb1ba20377da5582fb936443504"},"intro":null,"logo":null},{"name":"Einundzwanzig Kassel Bitcoin","portalLink":"https:\/\/portal.einundzwanzig.space\/de\/meetup\/einundzwanzig-kassel-bitcoin","url":"https:\/\/t.me\/einundzwanzig_kassel","top":null,"left":null,"country":"DE","state":null,"city":"Kassel","longitude":9.4924096,"latitude":51.3154546,"twitter_username":null,"website":null,"simplex":null,"signal":null,"nostr":null,"next_event":null,"intro":null,"logo":null},{"name":"Einundzwanzig Limburg","portalLink":"https:\/\/portal.einundzwanzig.space\/de\/meetup\/einundzwanzig-limburg","url":"https:\/\/t.me\/+dXengs7l2Y8yNDA6","top":49,"left":30,"country":"DE","state":["Hessen"],"city":"Limburg","longitude":8.05944,"latitude":50.38675,"twitter_username":null,"website":null,"simplex":null,"signal":null,"nostr":null,"next_event":null,"intro":null,"logo":null},{"name":"Einundzwanzig Stuttgart","portalLink":"https:\/\/portal.einundzwanzig.space\/de\/meetup\/einundzwanzig-stuttgart","url":"https:\/\/t.me\/einundzwanzigStuttgart","top":66,"left":30,"country":"DE","state":["Baden-W\u00fcrttemberg"],"city":"Stuttgart","longitude":9.1800132,"latitude":48.7784485,"twitter_username":"EinundzwanzigS","website":"https:\/\/einundzwanzig-stuttg.art\/","simplex":null,"signal":null,"nostr":null,"next_event":{"start":"2025-01-10 17:30:00","portalLink":"https:\/\/portal.einundzwanzig.space\/de\/meetup\/meetup-events\/l\/700","location":"Taverna Sultan Saray Stuttgart, Lautenschlagerstra\u00dfe 20, 70173 Stuttgart","description":"Stuttgart Meet Up: Jeden 2. Freitag im Monat.\n\nAktuell treffen wir uns in der Taverna Sultan Saray - hier k\u00f6nnt ihr eure Essen\/Getr\u00e4nke in sats bezahlen!","link":"https:\/\/goo.gl\/maps\/wQMY8ijXEazdVFNd7","attendees":0,"nostr_note":"437684df2d73f3085d2538ac21efa6cc4321b6bded1181eaee604bf1cdbf3b9f"},"intro":null,"logo":null},{"name":"Einundzwanzig Heinsberg","portalLink":"https:\/\/portal.einundzwanzig.space\/de\/meetup\/einundzwanzig-heinsberg","url":"https:\/\/t.me\/Einundzwanzig_HEINSBERG","top":40,"left":9,"country":"DE","state":["Nordrhein-Westfalen"],"city":"Heinsberg","longitude":6.0984461,"latitude":51.0654268,"twitter_username":null,"website":null,"simplex":null,"signal":null,"nostr":null,"next_event":null,"intro":null,"logo":null},{"name":"Einundzwanzig Sachsen","portalLink":"https:\/\/portal.einundzwanzig.space\/de\/meetup\/einundzwanzig-sachsen","url":"https:\/\/t.me\/einundzwanzigsachsen","top":38,"left":70,"country":"DE","state":["Sachsen"],"city":"Sachsen","longitude":13.4585052,"latitude":50.9295798,"twitter_username":null,"website":null,"simplex":null,"signal":null,"nostr":null,"next_event":null,"intro":null,"logo":null},{"name":"Einundzwanzig Wien","portalLink":"https:\/\/portal.einundzwanzig.space\/at\/meetup\/einundzwanzig-wien","url":"https:\/\/t.me\/+PqNXni20Dy5lOTU8","top":70,"left":93,"country":"AT","state":["Wien"],"city":"Wien","longitude":16.373819,"latitude":48.208176,"twitter_username":null,"website":null,"simplex":null,"signal":null,"nostr":null,"next_event":null,"intro":null,"logo":null},{"name":"Einundzwanzig Kiel","portalLink":"https:\/\/portal.einundzwanzig.space\/de\/meetup\/einundzwanzig-kiel","url":"https:\/\/t.me\/einundzwanzigkiel","top":null,"left":null,"country":"DE","state":null,"city":"Kiel","longitude":10.122765,"latitude":54.323292,"twitter_username":null,"website":null,"simplex":null,"signal":null,"nostr":null,"next_event":null,"intro":null,"logo":null},{"name":"Einundzwanzig Meetup Alt\u00f6tting","portalLink":"https:\/\/portal.einundzwanzig.space\/de\/meetup\/einundzwanzig-meetup-altoetting","url":"https:\/\/t.me\/EinundzwanzigAOE","top":null,"left":null,"country":"DE","state":null,"city":"Alt\u00f6tting","longitude":12.67887,"latitude":48.227928,"twitter_username":null,"website":null,"simplex":null,"signal":null,"nostr":null,"next_event":null,"intro":null,"logo":null},{"name":"Einundzwanzig und Libert\u00e4re Passau","portalLink":"https:\/\/portal.einundzwanzig.space\/de\/meetup\/einundzwanzig-und-libertaere-passau","url":"https:\/\/t.me\/Einundzwanzig_Passau","top":67,"left":68,"country":"DE","state":["Bayern"],"city":"Passau","longitude":13.4609744,"latitude":48.5748229,"twitter_username":null,"website":null,"simplex":null,"signal":null,"nostr":null,"next_event":{"start":"2025-01-18 17:30:00","portalLink":"https:\/\/portal.einundzwanzig.space\/de\/meetup\/meetup-events\/l\/1050","location":"Passau oder Sch\u00e4rding","description":"Komm in die Telegramm Gruppe - dort wird bekannt gegeben wo das Meetup ist","link":null,"attendees":0,"nostr_note":"029a7c8f4e953459e32fde2e765897d2280d45cfa03083202743ac990b2dbc23"},"intro":null,"logo":null},{"name":"Einundzwanzig Frankfurt am Main","portalLink":"https:\/\/portal.einundzwanzig.space\/de\/meetup\/einundzwanzig-frankfurt-am-main","url":"https:\/\/t.me\/btcffm","top":51,"left":26,"country":"DE","state":["Hessen"],"city":"Frankfurt am Main","longitude":8.6820917,"latitude":50.1106444,"twitter_username":"BTCFFM","website":null,"simplex":null,"signal":null,"nostr":null,"next_event":null,"intro":null,"logo":null},{"name":"Einundzwanzig Linz","portalLink":"https:\/\/portal.einundzwanzig.space\/at\/meetup\/einundzwanzig-linz","url":"https:\/\/t.me\/Einundzwanzig_Linz","top":69,"left":77,"country":"AT","state":["Ober\u00f6sterreich"],"city":"Linz","longitude":14.28583,"latitude":48.306938,"twitter_username":"Einundzwanzig_L","website":null,"simplex":null,"signal":null,"nostr":null,"next_event":{"start":"2025-01-09 17:00:00","portalLink":"https:\/\/portal.einundzwanzig.space\/at\/meetup\/meetup-events\/l\/1738","location":"Cafe Froschberg","description":null,"link":null,"attendees":1,"nostr_note":"fc3a834242b493dd937ac600d14ec9d9a0e5d786e4e7c5c226d0d43694e4e448"},"intro":null,"logo":null},{"name":"Bitcoin Z\u00fcrich","portalLink":"https:\/\/portal.einundzwanzig.space\/ch\/meetup\/bitcoin-zuerich","url":"https:\/\/www.meetup.com\/de-DE\/Bitcoin-Meetup-Switzerland\/","top":81,"left":27,"country":"CH","state":["Z\u00fcrich"],"city":"Z\u00fcrich","longitude":8.5410422,"latitude":47.3744489,"twitter_username":null,"website":null,"simplex":null,"signal":null,"nostr":null,"next_event":null,"intro":null,"logo":null},{"name":"Einundzwanzig Heidelberg","portalLink":"https:\/\/portal.einundzwanzig.space\/de\/meetup\/einundzwanzig-heidelberg","url":"https:\/\/t.me\/Einundzwanzig_HEIDELBERG","top":60,"left":27,"country":"DE","state":["Baden-W\u00fcrttemberg"],"city":"Heidelberg","longitude":8.694724,"latitude":49.4093582,"twitter_username":null,"website":null,"simplex":null,"signal":null,"nostr":null,"next_event":null,"intro":null,"logo":null},{"name":"Einundzwanzig Pfalz","portalLink":"https:\/\/portal.einundzwanzig.space\/de\/meetup\/einundzwanzig-pfalz","url":"https:\/\/t.me\/einundzwanzigPfalz","top":59,"left":19,"country":"DE","state":["Rheinland-Pfalz"],"city":"Pfalz","longitude":7.310646,"latitude":49.9531599,"twitter_username":null,"website":null,"simplex":null,"signal":null,"nostr":null,"next_event":null,"intro":null,"logo":null},{"name":"Einundzwanzig Langen","portalLink":"https:\/\/portal.einundzwanzig.space\/de\/meetup\/einundzwanzig-langen","url":"https:\/\/t.me\/bitcoinlangen","top":52,"left":26,"country":"DE","state":["Hessen"],"city":"Langen","longitude":8.6671682,"latitude":49.9927036,"twitter_username":null,"website":null,"simplex":null,"signal":null,"nostr":null,"next_event":null,"intro":null,"logo":null},{"name":"Bitcoin MeetUp Chiemsee\/Chiemgau","portalLink":"https:\/\/portal.einundzwanzig.space\/de\/meetup\/bitcoin-meetup-chiemseechiemgau","url":"https:\/\/t.me\/+wAD27rhDgDYzZmEy","top":null,"left":null,"country":"DE","state":null,"city":"Chiemsee\/Chiemgau","longitude":12.347379,"latitude":47.854901,"twitter_username":null,"website":"https:\/\/www.meetup.com\/de-DE\/chiemseebitcoinandblockchainmeetup\/","simplex":null,"signal":null,"nostr":null,"next_event":null,"intro":null,"logo":null},{"name":"Magic City Bitcoin","portalLink":"https:\/\/portal.einundzwanzig.space\/us\/meetup\/magic-city-bitcoin","url":"https:\/\/www.meetup.com\/members\/361882918\/","top":null,"left":null,"country":"US","state":null,"city":"Birmingham, AL","longitude":-86.810356,"latitude":33.518589,"twitter_username":"BtcBirmingham","website":"https:\/\/www.meetup.com\/members\/361882918\/","simplex":null,"signal":null,"nostr":null,"next_event":null,"intro":null,"logo":null},{"name":"Einundzwanzig Salzburg","portalLink":"https:\/\/portal.einundzwanzig.space\/at\/meetup\/einundzwanzig-salzburg","url":"https:\/\/t.me\/BitcoinSalzburg","top":76,"left":66,"country":"AT","state":["Salzburg"],"city":"Salzburg","longitude":13.0464806,"latitude":47.7981346,"twitter_username":null,"website":null,"simplex":null,"signal":null,"nostr":null,"next_event":{"start":"2025-01-10 17:00:00","portalLink":"https:\/\/portal.einundzwanzig.space\/at\/meetup\/meetup-events\/l\/1772","location":"\u20bfonami. BAR. RESTAURANT.","description":"\u20bf Einundzwanzig Salzburg - Bitcoin Meetup \u20bf Wann: Freitag, 10.01.25, ab 18h Wo: \u20bfonami. BAR. RESTAURANT., M\u00fcnchener Str. 12, 83395 Freilassing, Deutschland\n\nDon't forget to \u20bfring your Sats \ud83d\ude18","link":null,"attendees":2,"nostr_note":"2ff0dc16dab4ccb8aa9e3229536b7a38d5dafae6f6d33cfdb8a3be994bf0f9c0"},"intro":null,"logo":null},{"name":"Einundzwanzig Berlin","portalLink":"https:\/\/portal.einundzwanzig.space\/de\/meetup\/einundzwanzig-berlin","url":"https:\/\/t.me\/Einundzwanzig_Berlin","top":26,"left":65,"country":"DE","state":["Berlin"],"city":"Berlin","longitude":13.3888599,"latitude":52.5170365,"twitter_username":null,"website":"https:\/\/www.meetup.com\/de-DE\/Bitcoin-Lab-Berlin\/","simplex":null,"signal":null,"nostr":null,"next_event":null,"intro":null,"logo":null},{"name":"Einundzwanzig Wacken","portalLink":"https:\/\/portal.einundzwanzig.space\/de\/meetup\/einundzwanzig-wacken","url":"https:\/\/t.me\/einundzwanzigWOA","top":10,"left":37,"country":"DE","state":["Schleswig-Holstein"],"city":"Wacken","longitude":9.3759,"latitude":54.020012,"twitter_username":null,"website":null,"simplex":null,"signal":null,"nostr":null,"next_event":null,"intro":null,"logo":null},{"name":"Yirmibir Istanbul","portalLink":"https:\/\/portal.einundzwanzig.space\/tr\/meetup\/yirmibir-istanbul","url":"","top":null,"left":null,"country":"TR","state":null,"city":"Istanbul","longitude":28.9662187,"latitude":41.0091982,"twitter_username":null,"website":"https:\/\/yirmibir.org","simplex":null,"signal":null,"nostr":null,"next_event":null,"intro":null,"logo":null},{"name":"Bitcoin Meetup Schwerin \"Spezial\" im Easyjump Schwerin \u2013 Trampolinhalle - !!! MIT KINDERN !!!","portalLink":"https:\/\/portal.einundzwanzig.space\/de\/meetup\/bitcoin-meetup-schwerin-spezial-im-easyjump-schwerin-trampolinhalle-mit-kindern","url":"https:\/\/t.me\/+ruWxukKwM2MwYzRi","top":null,"left":null,"country":"DE","state":null,"city":"Schwerin","longitude":11.40125,"latitude":53.635502,"twitter_username":"XellosAusSN","website":"https:\/\/www.easyjump-schwerin.de\/preise-infos\/preise-und-oeffnungszeiten","simplex":null,"signal":null,"nostr":null,"next_event":null,"intro":null,"logo":null},{"name":"Einundzwanzig Spreewald ","portalLink":"https:\/\/portal.einundzwanzig.space\/de\/meetup\/einundzwanzig-spreewald","url":"https:\/\/t.me\/einundzwanzigspreewald","top":null,"left":null,"country":"DE","state":null,"city":"Spreewald ","longitude":13.71362,"latitude":51.850361,"twitter_username":"schlabendorf","website":"https:\/\/www.einundzwanzig.space","simplex":null,"signal":null,"nostr":null,"next_event":null,"intro":null,"logo":null},{"name":"Einundzwanzig Solingen","portalLink":"https:\/\/portal.einundzwanzig.space\/de\/meetup\/einundzwanzig-solingen","url":"https:\/\/t.me\/einundzwanzig_solingen","top":39,"left":18,"country":"DE","state":["Nordrhein-Westfalen"],"city":"Solingen","longitude":7.0845893,"latitude":51.1721629,"twitter_username":null,"website":null,"simplex":null,"signal":null,"nostr":null,"next_event":null,"intro":null,"logo":null},{"name":"Bitcoin Ulm","portalLink":"https:\/\/portal.einundzwanzig.space\/de\/meetup\/bitcoin-ulm","url":"https:\/\/www.meetup.com\/de-DE\/Bitcoin-Ulm\/","top":70,"left":38,"country":"DE","state":["Baden-W\u00fcrttemberg"],"city":"Ulm","longitude":9.9934336,"latitude":48.3974003,"twitter_username":null,"website":null,"simplex":null,"signal":null,"nostr":null,"next_event":null,"intro":null,"logo":null},{"name":"Einundzwanzig Aachen","portalLink":"https:\/\/portal.einundzwanzig.space\/de\/meetup\/einundzwanzig-aachen","url":"https:\/\/t.me\/einundzwanzig_aachen","top":43,"left":8,"country":"DE","state":["Nordrhein-Westfalen"],"city":"Aachen","longitude":6.083862,"latitude":50.776351,"twitter_username":null,"website":null,"simplex":null,"signal":null,"nostr":null,"next_event":null,"intro":null,"logo":null},{"name":"Einundzwanzig Oelde","portalLink":"https:\/\/portal.einundzwanzig.space\/de\/meetup\/einundzwanzig-oelde","url":"https:\/\/t.me\/EinundzwanzigOelde","top":31,"left":27,"country":"DE","state":["Nordrhein-Westfalen"],"city":"Osnabr\u00fcck","longitude":8.1453352,"latitude":51.8260823,"twitter_username":null,"website":null,"simplex":null,"signal":null,"nostr":null,"next_event":null,"intro":null,"logo":null},{"name":"Einundzwanzig Eschenbach ","portalLink":"https:\/\/portal.einundzwanzig.space\/ch\/meetup\/einundzwanzig-eschenbach","url":null,"top":null,"left":null,"country":"CH","state":null,"city":"Einunzwanzig Eschenbach SG","longitude":8.92266,"latitude":47.24083,"twitter_username":"Nightshell21","website":null,"simplex":null,"signal":null,"nostr":null,"next_event":null,"intro":null,"logo":null},{"name":"Einundzwanzig Meetup M\u00fchldorf am Inn","portalLink":"https:\/\/portal.einundzwanzig.space\/de\/meetup\/einundzwanzig-meetup-muehldorf-am-inn","url":"https:\/\/t.me\/+KUpZ5NKm-IxjYTQ6","top":null,"left":null,"country":"DE","state":null,"city":"M\u00fchldorf am Inn","longitude":12.52761,"latitude":48.23896,"twitter_username":null,"website":null,"simplex":null,"signal":null,"nostr":"npub1tg7rx4ezywtfesrkr92xwagu6r9aczp3ux322s3vh0ydzr97mqss4lyzrl","next_event":{"start":"2025-01-17 17:00:00","portalLink":"https:\/\/portal.einundzwanzig.space\/de\/meetup\/meetup-events\/l\/1763","location":"Restaurant Palermo, Br\u00fcckenstra\u00dfe 15, 84453 M\u00fchldorf","description":"Weihnachten ist vorbei, 2025 ist da, Zeit sich in die H\u00fctte zu schmei\u00dfen!\nDer Stammtisch freut sich auf einen gem\u00fctlichen Abend in rustikalem Ambiente.\nNeue Leute sind gern gesehen.\nStay Humble and stack Sats!  ","link":"https:\/\/maps.app.goo.gl\/XPTZhvLWKx2q7VVE6","attendees":1,"nostr_note":"3f194602049c8467e74b059b96f88bbb83d231ecd509926362544e102a356446"},"intro":null,"logo":null},{"name":"Einundzwanzig Nordhausen","portalLink":"https:\/\/portal.einundzwanzig.space\/de\/meetup\/einundzwanzig-nordhausen","url":"https:\/\/t.me\/einundzwanzig_nordhausen","top":null,"left":null,"country":"DE","state":null,"city":"Nordhausen","longitude":10.795885,"latitude":51.503171,"twitter_username":null,"website":null,"simplex":null,"signal":null,"nostr":null,"next_event":null,"intro":null,"logo":null},{"name":"Einundzwanzig Saarland Stammtisch St. Wendel","portalLink":"https:\/\/portal.einundzwanzig.space\/de\/meetup\/einundzwanzig-saarland-stammtisch-st-wendel","url":"https:\/\/t.me\/+O4QRQXEEo_Y0MTZi","top":null,"left":null,"country":"DE","state":null,"city":"St. Wendel","longitude":7.1725,"latitude":49.468056,"twitter_username":null,"website":null,"simplex":null,"signal":null,"nostr":null,"next_event":{"start":"2024-12-27 17:00:00","portalLink":"https:\/\/portal.einundzwanzig.space\/de\/meetup\/meetup-events\/l\/1708","location":"Bruder Jakob St. Wendel, anschlie\u00dfend im Irish Pub","description":null,"link":"https:\/\/maps.app.goo.gl\/Uzj1TtpeycWnR1e18","attendees":1,"nostr_note":"a587cd0b3a1fca89ddd8b0c4fad3c976559c8456f5e5b43c9f559202ab0fefd1"},"intro":null,"logo":null},{"name":"EINUNDZWANZIG BASEL  - BITCOIN BASEL","portalLink":"https:\/\/portal.einundzwanzig.space\/ch\/meetup\/einundzwanzig-basel-bitcoin-basel","url":"https:\/\/t.me\/EinundzwanzigBS","top":null,"left":null,"country":"CH","state":null,"city":"Basel","longitude":7.5878261,"latitude":47.5581077,"twitter_username":"einundzwanzigBS","website":"https:\/\/bitcoin-basel.ch","simplex":null,"signal":null,"nostr":null,"next_event":null,"intro":null,"logo":null},{"name":"Einundzwanzig Thurgau","portalLink":"https:\/\/portal.einundzwanzig.space\/ch\/meetup\/einundzwanzig-thurgau","url":"https:\/\/t.me\/Einundzwanzig_Thurgau","top":79,"left":29,"country":"CH","state":["Thurgau"],"city":"Thurgau","longitude":9.1428769,"latitude":47.5859649,"twitter_username":null,"website":null,"simplex":null,"signal":null,"nostr":null,"next_event":null,"intro":null,"logo":null},{"name":"Einundzwanzig Gelnhausen","portalLink":"https:\/\/portal.einundzwanzig.space\/de\/meetup\/einundzwanzig-gelnhausen","url":"https:\/\/t.me\/einundzwanzig_gelnhausen","top":48,"left":31,"country":"DE","state":["Hessen"],"city":"Gelnhausen","longitude":9.190486,"latitude":50.2028622,"twitter_username":null,"website":null,"simplex":null,"signal":null,"nostr":null,"next_event":null,"intro":null,"logo":null},{"name":"Einundzwanzig Augsburg","portalLink":"https:\/\/portal.einundzwanzig.space\/de\/meetup\/einundzwanzig-augsburg","url":"https:\/\/t.me\/Einundzwanzig_Augsburg","top":70,"left":46,"country":"DE","state":["Bayern"],"city":"Augsburg","longitude":10.8986971,"latitude":48.3668041,"twitter_username":null,"website":null,"simplex":null,"signal":null,"nostr":null,"next_event":null,"intro":null,"logo":null},{"name":"Einundzwanzig Mannheim","portalLink":"https:\/\/portal.einundzwanzig.space\/de\/meetup\/einundzwanzig-mannheim","url":"https:\/\/t.me\/Einundzwanzig_MANNHEIM","top":58,"left":25,"country":"DE","state":["Baden-W\u00fcrttemberg"],"city":"Mannheim","longitude":8.4673098,"latitude":49.4892913,"twitter_username":"EinundzwanzigMA","website":null,"simplex":null,"signal":"https:\/\/signal.group\/#CjQKIIQf6Gv9IFBcfbQEN2ggZIqznJY_UPHuAxlZdTQzJ-e4EhAGRz_Kb3ZuxkqeddtFbxkM","nostr":"npub19hqy8flf88rc98advepxjhf35mg7h6hmerquc9rsrrgtg5fgjz9qtvhms8","next_event":null,"intro":null,"logo":null},{"name":"32-Einezw\u00e4nzg Seeland","portalLink":"https:\/\/portal.einundzwanzig.space\/ch\/meetup\/32-einezwaenzg-seeland","url":"https:\/\/t.me\/Einundzwanzig_Seeland","top":null,"left":null,"country":"CH","state":null,"city":"Lyss","longitude":7.306577,"latitude":47.074029,"twitter_username":null,"website":null,"simplex":null,"signal":null,"nostr":null,"next_event":null,"intro":null,"logo":null},{"name":"VINTE E UM - Funchal","portalLink":"https:\/\/portal.einundzwanzig.space\/pt\/meetup\/vinte-e-um-funchal","url":"https:\/\/t.me\/vinteumpt","top":null,"left":null,"country":"PT","state":null,"city":"Funchal","longitude":-16.924055,"latitude":32.666931,"twitter_username":null,"website":null,"simplex":null,"signal":null,"nostr":null,"next_event":null,"intro":null,"logo":null},{"name":"Flensburg","portalLink":"https:\/\/portal.einundzwanzig.space\/de\/meetup\/flensburg","url":"https:\/\/t.me\/Einundzwanzig_NF","top":null,"left":null,"country":"DE","state":null,"city":"Flensburg","longitude":9.434699,"latitude":54.792313,"twitter_username":null,"website":null,"simplex":null,"signal":null,"nostr":null,"next_event":null,"intro":null,"logo":null},{"name":"Einundzwanzig Gastein","portalLink":"https:\/\/portal.einundzwanzig.space\/at\/meetup\/einundzwanzig-gastein","url":"https:\/\/t.me\/+ayFql2Yr56A4MjE0","top":null,"left":null,"country":"AT","state":null,"city":"Bad Gastein","longitude":13.136,"latitude":47.114349,"twitter_username":"BtcGastein","website":null,"simplex":null,"signal":null,"nostr":null,"next_event":null,"intro":null,"logo":null},{"name":"Einundzwanzig Regensburg","portalLink":"https:\/\/portal.einundzwanzig.space\/de\/meetup\/einundzwanzig-regensburg","url":"https:\/\/t.me\/+2s5SRFj8khYwYzNi","top":62,"left":57,"country":"DE","state":["Bayern"],"city":"Regensburg","longitude":12.0974869,"latitude":49.0195333,"twitter_username":"EinundzwanzigRg","website":"https:\/\/www.bitcoin-regensburg.de","simplex":null,"signal":null,"nostr":null,"next_event":null,"intro":null,"logo":null},{"name":"Sylt ","portalLink":"https:\/\/portal.einundzwanzig.space\/de\/meetup\/sylt","url":null,"top":null,"left":null,"country":"DE","state":null,"city":"Sylt ","longitude":8.34,"latitude":54.95,"twitter_username":"@Steffux75","website":null,"simplex":null,"signal":null,"nostr":null,"next_event":null,"intro":null,"logo":null},{"name":"Einundzwanzig M\u00f6nchengladbach","portalLink":"https:\/\/portal.einundzwanzig.space\/de\/meetup\/einundzwanzig-moenchengladbach","url":"https:\/\/t.me\/einundzwanzigmg","top":null,"left":null,"country":"DE","state":null,"city":"M\u00f6nchengladbach","longitude":6.441951,"latitude":51.199272,"twitter_username":null,"website":"https:\/\/www.bitcoin-treff.com\/standorte\/einundzwanzig-m%C3%B6nchengladbach.html","simplex":null,"signal":null,"nostr":null,"next_event":null,"intro":null,"logo":null},{"name":"Einundzwanzig Wetterau","portalLink":"https:\/\/portal.einundzwanzig.space\/de\/meetup\/einundzwanzig-wetterau","url":"https:\/\/t.me\/einundzwanzig_wetterau","top":null,"left":null,"country":"DE","state":null,"city":"Wetterau","longitude":8.75353,"latitude":50.336731,"twitter_username":"EinundzwanzigFB","website":"https:\/\/fb.21mio.eu","simplex":null,"signal":null,"nostr":null,"next_event":null,"intro":null,"logo":null},{"name":"Bitcoin Meetup - Einundzwanzig Potsdam","portalLink":"https:\/\/portal.einundzwanzig.space\/de\/meetup\/bitcoin-meetup-einundzwanzig-potsdam","url":"https:\/\/t.me\/Einundzwanzig_Potsdam","top":null,"left":null,"country":"DE","state":null,"city":"Potsdam","longitude":13.0591397,"latitude":52.4009309,"twitter_username":null,"website":null,"simplex":null,"signal":null,"nostr":null,"next_event":null,"intro":null,"logo":null},{"name":"Einundzwanzig Mecklenburg-Vorpommern","portalLink":"https:\/\/portal.einundzwanzig.space\/de\/meetup\/einundzwanzig-mecklenburg-vorpommern","url":"https:\/\/t.me\/EinundzwanzigMV","top":11,"left":59,"country":"DE","state":["Mecklenburg-Vorpommern"],"city":"Schwerin","longitude":11.40125,"latitude":53.635502,"twitter_username":null,"website":null,"simplex":null,"signal":null,"nostr":null,"next_event":null,"intro":null,"logo":null},{"name":"Bitcoiners Bulgaria","portalLink":"https:\/\/portal.einundzwanzig.space\/bg\/meetup\/bitcoiners-bulgaria","url":null,"top":null,"left":null,"country":"BG","state":null,"city":"Sofia","longitude":23.339746,"latitude":42.644661,"twitter_username":"@Nackoo2000","website":null,"simplex":null,"signal":null,"nostr":"npub18jp8mdkytalxyg06zxdevpzwkxjpy9r2rat8gapgwnmmyejp3lps7edjnx","next_event":null,"intro":null,"logo":null},{"name":"BG BTC meet up","portalLink":"https:\/\/portal.einundzwanzig.space\/bg\/meetup\/bg-btc-meet-up","url":null,"top":null,"left":null,"country":"BG","state":null,"city":"Sofia","longitude":23.339746,"latitude":42.644661,"twitter_username":"Nackoo2000","website":null,"simplex":null,"signal":null,"nostr":"npub18jp8mdkytalxyg06zxdevpzwkxjpy9r2rat8gapgwnmmyejp3lps7edjnx","next_event":null,"intro":null,"logo":null},{"name":"Einundzwanzig Fulda","portalLink":"https:\/\/portal.einundzwanzig.space\/de\/meetup\/einundzwanzig-fulda","url":"https:\/\/t.me\/einundzwanzigFD","top":46,"left":38,"country":"DE","state":["Hessen"],"city":"Fulda","longitude":9.6770448,"latitude":50.5542328,"twitter_username":"einundzwanzigFD","website":null,"simplex":null,"signal":null,"nostr":null,"next_event":null,"intro":null,"logo":null},{"name":"Einundzwanzig Sigmaringen","portalLink":"https:\/\/portal.einundzwanzig.space\/de\/meetup\/einundzwanzig-sigmaringen","url":"https:\/\/t.me\/EinundzwanzigSigmaringen","top":72,"left":30,"country":"DE","state":["Baden-W\u00fcrttemberg"],"city":"Sigmaringen","longitude":9.21662,"latitude":48.085758,"twitter_username":"EinundzwanzigSi","website":null,"simplex":null,"signal":null,"nostr":null,"next_event":null,"intro":null,"logo":null},{"name":"Bitcoin Westerwald","portalLink":"https:\/\/portal.einundzwanzig.space\/de\/meetup\/bitcoin-westerwald","url":"https:\/\/t.me\/+Fuf31eYpKh1kYTIy","top":null,"left":null,"country":"DE","state":null,"city":"Westerwald","longitude":7.766488,"latitude":50.459821,"twitter_username":null,"website":null,"simplex":null,"signal":null,"nostr":null,"next_event":null,"intro":null,"logo":null},{"name":"21 Gie\u00dfen","portalLink":"https:\/\/portal.einundzwanzig.space\/de\/meetup\/21-giessen","url":"https:\/\/t.me\/einundzwanzig_giessen","top":null,"left":null,"country":"DE","state":null,"city":"Gie\u00dfen","longitude":8.669722,"latitude":50.587222,"twitter_username":null,"website":null,"simplex":null,"signal":null,"nostr":null,"next_event":null,"intro":null,"logo":null},{"name":"21Bissendorf (est. 798421)","portalLink":"https:\/\/portal.einundzwanzig.space\/de\/meetup\/21bissendorf-est-798421","url":"https:\/\/t.me\/einundzwanzig_bissendorf","top":null,"left":null,"country":"DE","state":null,"city":"Osnabr\u00fcck","longitude":8.1453352,"latitude":51.8260823,"twitter_username":null,"website":null,"simplex":null,"signal":null,"nostr":null,"next_event":null,"intro":null,"logo":null},{"name":"Einundzwanzig Styria","portalLink":"https:\/\/portal.einundzwanzig.space\/at\/meetup\/einundzwanzig-styria","url":"https:\/\/t.me\/Einundzwanzig_Styria","top":84,"left":87,"country":"AT","state":["Steiermark"],"city":"Styria","longitude":15.1666665,"latitude":47.2500001,"twitter_username":"EinundzwanzigSt","website":null,"simplex":null,"signal":null,"nostr":null,"next_event":null,"intro":null,"logo":null},{"name":"Einundzwanzig Bremen","portalLink":"https:\/\/portal.einundzwanzig.space\/de\/meetup\/einundzwanzig-bremen","url":"https:\/\/t.me\/Einundzwanzig_Norden","top":20,"left":29,"country":"DE","state":["Bremen"],"city":"Bremen","longitude":8.8071646,"latitude":53.0758196,"twitter_username":"Einundzwanzig_N","website":null,"simplex":"https:\/\/simplex.chat\/contact#\/?v=1-4&smp=smp%3A%2F%2FN_McQS3F9TGoh4ER0QstUf55kGnNSd-wXfNPZ7HukcM%3D%40smp19.simplex.im%2FZENAnlo5AMQVPGRBVQMC8jGbBk5XtfS4%23%2F%3Fv%3D1-2%26dh%3DMCowBQYDK2VuAyEA1jeKA3zLhP9gqYu5kcmgSptqpZE2EQozzQ7MR7BNVXU%253D%26srv%3Di53bbtoqhlc365k6kxzwdp5w3cdt433s7bwh3y32rcbml2vztiyyz5id.onion&data=%7B%22type%22%3A%22group%22%2C%22groupLinkId%22%3A%22wj43zKtow9d0-H-3Oaga1Q%3D%3D%22%7D","signal":null,"nostr":"npub1qk7quv6gc3faa276gyv3e46ahjxy0ghnmq02ymeeqsljutzue4eqpfsxue","next_event":{"start":"2024-12-30 17:30:00","portalLink":"https:\/\/portal.einundzwanzig.space\/de\/meetup\/meetup-events\/l\/1642","location":"Schwarzer Hermann (N\u00e4he Hauptbahnhof)","description":"Hohenlohestra\u00dfe 4-6, 28209 Bremen","link":"https:\/\/maps.app.goo.gl\/WJUisY3GXGtfPuSa9","attendees":0,"nostr_note":"bbbed9b614da1aec6a6959a26a9c04ca4ade4f7fe676928174934c234930aeea"},"intro":null,"logo":null},{"name":"Einundzwanzig Dingolfing-Landau","portalLink":"https:\/\/portal.einundzwanzig.space\/de\/meetup\/einundzwanzig-dingolfing-landau","url":"https:\/\/t.me\/einundzwanzig_dgf","top":null,"left":null,"country":"DE","state":null,"city":"Dingolfing","longitude":12.49782,"latitude":48.628471,"twitter_username":"Schlimmer0815","website":null,"simplex":null,"signal":null,"nostr":"npub1ml8m49q8g0j5hkm7rqtszn668raku2htmcq4mfr29vdkg4gcruesdp62nn","next_event":null,"intro":null,"logo":null},{"name":"Einundzwanzig Potsdam","portalLink":"https:\/\/portal.einundzwanzig.space\/de\/meetup\/einundzwanzig-potsdam","url":"https:\/\/t.me\/Einundzwanzig_Potsdam","top":27,"left":63,"country":"DE","state":["Brandenburg"],"city":"Potsdam","longitude":13.0591397,"latitude":52.4009309,"twitter_username":null,"website":null,"simplex":null,"signal":null,"nostr":null,"next_event":null,"intro":null,"logo":null},{"name":"Bitcoin-Only Meetup in Bulgaria","portalLink":"https:\/\/portal.einundzwanzig.space\/bg\/meetup\/bitcoin-only-meetup-in-bulgaria","url":"https:\/\/t.me\/+k1uxJgMGfSdmNDk0","top":null,"left":null,"country":"BG","state":null,"city":"Bitcoin-Only Meetup in Bulgaria","longitude":27.47003,"latitude":42.497681,"twitter_username":null,"website":null,"simplex":null,"signal":null,"nostr":null,"next_event":null,"intro":null,"logo":null},{"name":"Bitcoin Austria","portalLink":"https:\/\/portal.einundzwanzig.space\/at\/meetup\/bitcoin-austria","url":"https:\/\/bitcoin-austria.at\/events\/","top":69,"left":93,"country":"AT","state":["Wien"],"city":"Austria","longitude":14.550072,"latitude":47.516232,"twitter_username":"bitcoin_at","website":"https:\/\/bitcoin-austria.at\/","simplex":null,"signal":null,"nostr":"npub16tcathdvfgx30ds3fjy8d80kwwdks5pe29ms4yda2ydzqat4uydsyq5jkf","next_event":null,"intro":null,"logo":null},{"name":"Einundzwanzig Luzern","portalLink":"https:\/\/portal.einundzwanzig.space\/ch\/meetup\/einundzwanzig-luzern","url":"https:\/\/t.me\/bitcoinluzern","top":null,"left":null,"country":"CH","state":null,"city":"Luzern","longitude":8.309683,"latitude":47.050933,"twitter_username":"","website":"https:\/\/instagram.com\/bitcoin_luzern?igshid=ZWIzMWE5ZmU3Zg","simplex":null,"signal":null,"nostr":null,"next_event":null,"intro":null,"logo":null},{"name":"Einundzwanzig Bad Iburg","portalLink":"https:\/\/portal.einundzwanzig.space\/de\/meetup\/einundzwanzig-bad-iburg","url":"https:\/\/t.me\/einundzwanzigbadiburg","top":null,"left":null,"country":"DE","state":null,"city":"Osnabr\u00fcck","longitude":8.1453352,"latitude":51.8260823,"twitter_username":null,"website":null,"simplex":null,"signal":null,"nostr":null,"next_event":null,"intro":null,"logo":null},{"name":"Einundzwanzig Hameln","portalLink":"https:\/\/portal.einundzwanzig.space\/de\/meetup\/einundzwanzig-hameln","url":"https:\/\/t.me\/EinundzwanzigHameln","top":null,"left":null,"country":"DE","state":null,"city":"Hameln","longitude":9.362171,"latitude":52.108273,"twitter_username":null,"website":null,"simplex":null,"signal":null,"nostr":null,"next_event":null,"intro":null,"logo":null},{"name":"Einundzwanzig Beckum","portalLink":"https:\/\/portal.einundzwanzig.space\/de\/meetup\/einundzwanzig-beckum","url":"https:\/\/t.me\/+Mzce7ygPIOgwMDUy","top":null,"left":null,"country":"DE","state":null,"city":"Beckum","longitude":8.0178,"latitude":51.7564,"twitter_username":null,"website":null,"simplex":null,"signal":null,"nostr":null,"next_event":null,"intro":null,"logo":null},{"name":"Einundzwanzig Ostfriesland","portalLink":"https:\/\/portal.einundzwanzig.space\/de\/meetup\/einundzwanzig-ostfriesland","url":"https:\/\/t.me\/Einundzwanzig_Ostriesland","top":13,"left":20,"country":"DE","state":["Niedersachsen"],"city":"Aurich","longitude":7.3915287,"latitude":53.5122853,"twitter_username":null,"website":null,"simplex":null,"signal":null,"nostr":null,"next_event":null,"intro":null,"logo":null},{"name":"Einundzwanzig Starnberg - Bitcoin Meetup","portalLink":"https:\/\/portal.einundzwanzig.space\/de\/meetup\/einundzwanzig-starnberg-bitcoin-meetup","url":"https:\/\/t.me\/Bitcoin_Starnberg","top":null,"left":null,"country":"DE","state":null,"city":"Starnberg","longitude":11.34286,"latitude":48.000542,"twitter_username":null,"website":null,"simplex":null,"signal":null,"nostr":null,"next_event":null,"intro":null,"logo":null},{"name":"Einundzwanzig Konstanz","portalLink":"https:\/\/portal.einundzwanzig.space\/de\/meetup\/einundzwanzig-konstanz","url":"https:\/\/t.me\/Einundzwanzig_Konstanz","top":77,"left":29,"country":"DE","state":["Baden-W\u00fcrttemberg"],"city":"Konstanz","longitude":9.1750718,"latitude":47.659216,"twitter_username":"einundzwanzigKN","website":"https:\/\/sites.google.com\/view\/21-meetup-kn\/startseite","simplex":null,"signal":null,"nostr":null,"next_event":{"start":"2024-12-30 17:00:00","portalLink":"https:\/\/portal.einundzwanzig.space\/de\/meetup\/meetup-events\/l\/1443","location":"Wird in der Telegram-Gruppe bekanntgegeben","description":"Wir treffen uns einmal im Monat und tauschen uns zu aktuellen Themen Rund um Bitcoin aus. Wir sind ein offenes Meetup, es ist jede Person willkommen! Egal, ob du noch v\u00f6llig neu im Bitcoin-Space bist oder schon zu Satoshis Zeiten dabei warst, komm einfach vorbei! \nDas Meetup findet immer in der letzten Woche des Monats statt. Der Wochentag des Meetups wechselt monatlich von Do-Sa durch. Damit m\u00f6chten wir m\u00f6glichst vielen Personen die Chance geben, teilzunehmen.","link":"https:\/\/sites.google.com\/view\/21-meetup-kn\/startseite","attendees":0,"nostr_note":"051876c7046d62c0b396dc55036271fedd29b04d7d0932806019d1ab59afc454"},"intro":null,"logo":null},{"name":"Einundzwanzig Freising","portalLink":"https:\/\/portal.einundzwanzig.space\/de\/meetup\/einundzwanzig-freising","url":"https:\/\/t.me\/einundzwanzigfreising","top":70,"left":56,"country":"DE","state":["Bayern"],"city":"Freising","longitude":11.7439565,"latitude":48.4008273,"twitter_username":"","website":"","simplex":null,"signal":null,"nostr":"npub1lj4j5sfj4tpnx6zg9fqpvfa4psst7xdkstystmhnmrgeasfj7h5s437up5","next_event":null,"intro":null,"logo":null},{"name":"Einundzwanzig Landau","portalLink":"https:\/\/portal.einundzwanzig.space\/de\/meetup\/einundzwanzig-landau","url":"https:\/\/t.me\/einundzwanzigld","top":null,"left":null,"country":"DE","state":null,"city":"Landau","longitude":8.11277,"latitude":49.19368,"twitter_username":"einundzwanzigld","website":null,"simplex":"https:\/\/simplex.chat\/contact#\/?v=2-7&smp=smp%3A%2F%2Fhejn2gVIqNU6xjtGM3OwQeuk8ZEbDXVJXAlnSBJBWUA%3D%40smp16.simplex.im%2FKpzMptSyw43tb4N1cZSRlL0D2QtycQH3%23%2F%3Fv%3D1-3%26dh%3DMCowBQYDK2VuAyEAMllGEChRsSYVzBG6E8cx02nXRrqUwU7mODH3NAYk7yU%253D%26srv%3Dp3ktngodzi6qrf7w64mmde3syuzrv57y55hxabqcq3l5p6oi7yzze6qd.onion&data=%7B%22type%22%3A%22group%22%2C%22groupLinkId%22%3A%22MNVAmD3NqlNYBJkfoURZSQ%3D%3D%22%7D","signal":"https:\/\/signal.group\/#CjQKIOx7ScvrJJkact-9Fs9qWKsSDVBr_Oltvutoi52gaWNwEhBzK1QuXa076qDj31V07nwo","nostr":"npub1s40yqu44c4tu355kkkjx2cvjs2uhvgaceqchyhdm45jfpq3dh03q3ytdxj","next_event":null,"intro":null,"logo":null},{"name":"Einundzwanzig Rohrbach","portalLink":"https:\/\/portal.einundzwanzig.space\/at\/meetup\/einundzwanzig-rohrbach","url":"t.me\/+LW4hmWSUUPgxYWI8","top":null,"left":null,"country":"AT","state":null,"city":"Rohrbach","longitude":13.988263,"latitude":48.570985,"twitter_username":null,"website":null,"simplex":null,"signal":null,"nostr":"nostr:nevent1qqsvl3398hrf9ykwyz906fm33h6n4r7ada85xuyz7akc029jq2q0wkspr3mhxue69uhkummnw3ezuumhd9ehxtt9de5kwmtp9e3kstczypvajnt4tjr8scxmq5can72kk8wj0f6c0l6jv5ytula8wf8fpxg3kqcyqqqqq2qvnahsj","next_event":null,"intro":null,"logo":null},{"name":"Einundzwanzig Gie\u00dfen","portalLink":"https:\/\/portal.einundzwanzig.space\/de\/meetup\/einundzwanzig-giessen","url":"https:\/\/t.me\/einundzwanzig_giessen","top":null,"left":null,"country":"DE","state":null,"city":"Gie\u00dfen","longitude":8.669722,"latitude":50.587222,"twitter_username":null,"website":null,"simplex":null,"signal":null,"nostr":null,"next_event":null,"intro":null,"logo":null},{"name":"Einundzwanzig Friedrichshafen","portalLink":"https:\/\/portal.einundzwanzig.space\/de\/meetup\/einundzwanzig-friedrichshafen","url":"https:\/\/t.me\/+i7hOYiYDVagyOWVi","top":78,"left":35,"country":"DE","state":["Baden-W\u00fcrttemberg"],"city":"Friedrichshafen","longitude":9.4800858,"latitude":47.6500279,"twitter_username":null,"website":null,"simplex":null,"signal":null,"nostr":null,"next_event":{"start":"2025-02-11 18:00:00","portalLink":"https:\/\/portal.einundzwanzig.space\/de\/meetup\/meetup-events\/l\/1696","location":"Wird auf Telegram bekannt gegeben","description":"Bitte in Telegram Gruppe f\u00fcr das Meetup zusagen. Dort gibt es auch genauere Infos zum Ort und falls sich der Termin verschiebt. ","link":null,"attendees":1,"nostr_note":"5c36d312a3d17d72178f52678076ed3fb236f6f676af809c1178aa3cbba1b1b8"},"intro":null,"logo":null},{"name":"Einundzwanzig Sachsen-Anhalt","portalLink":"https:\/\/portal.einundzwanzig.space\/de\/meetup\/einundzwanzig-sachsen-anhalt","url":"https:\/\/t.me\/Meetup21SA","top":31,"left":53,"country":"DE","state":["Sachsen-Anhalt"],"city":"Magdeburg","longitude":11.6399609,"latitude":52.1315889,"twitter_username":null,"website":null,"simplex":null,"signal":null,"nostr":null,"next_event":null,"intro":null,"logo":null},{"name":"Einundzwanzig Bensheim","portalLink":"https:\/\/portal.einundzwanzig.space\/de\/meetup\/einundzwanzig-bensheim","url":"https:\/\/t.me\/einundzwanzigbensheim","top":null,"left":null,"country":"DE","state":null,"city":"Bensheim","longitude":8.62547,"latitude":49.70363,"twitter_username":null,"website":null,"simplex":null,"signal":null,"nostr":null,"next_event":null,"intro":null,"logo":null},{"name":"Einundzwanzig Berlin Nord","portalLink":"https:\/\/portal.einundzwanzig.space\/de\/meetup\/einundzwanzig-berlin-nord","url":"https:\/\/t.me\/+rEmpixbyvEwwNThi","top":null,"left":null,"country":"DE","state":null,"city":"Berlin Nord","longitude":13.389964,"latitude":52.62206,"twitter_username":null,"website":"https:\/\/www.meetup.com\/Bitcoin-Lab-Berlin\/events\/","simplex":null,"signal":null,"nostr":null,"next_event":null,"intro":null,"logo":null},{"name":"Einundzwanzig Landshut","portalLink":"https:\/\/portal.einundzwanzig.space\/de\/meetup\/einundzwanzig-landshut","url":"https:\/\/t.me\/+Fgjmi4FHDvM1MmQy","top":null,"left":null,"country":"DE","state":null,"city":"Landshut","longitude":12.146853,"latitude":48.544193,"twitter_username":null,"website":null,"simplex":null,"signal":null,"nostr":null,"next_event":null,"intro":null,"logo":null},{"name":"Einundzwanzig Villingen-Schwenningen","portalLink":"https:\/\/portal.einundzwanzig.space\/de\/meetup\/einundzwanzig-villingen-schwenningen","url":"https:\/\/t.me\/+z8CNwSG7M38xOThi","top":null,"left":null,"country":"DE","state":null,"city":"Villingen-Schwenningen","longitude":8.464087,"latitude":48.059402,"twitter_username":null,"website":null,"simplex":null,"signal":null,"nostr":null,"next_event":null,"intro":null,"logo":null},{"name":"Einundzwanzig Ostschweiz","portalLink":"https:\/\/portal.einundzwanzig.space\/ch\/meetup\/einundzwanzig-ostschweiz","url":"https:\/\/t.me\/+MnemCuMPkb5kM2U8","top":80,"left":31,"country":"CH","state":["St.Gallen","Graub\u00fcnden","Glarus","Thurgau","Appenzell Ausserrhoden","Appenzell Innerrhoden"],"city":"Ostschweiz","longitude":9.0838964,"latitude":47.2975781,"twitter_username":null,"website":"https:\/\/www.meetup.com\/einundzwanzig-bitcoin-meetup-schweiz\/","simplex":null,"signal":null,"nostr":null,"next_event":{"start":"2025-01-03 18:00:00","portalLink":"https:\/\/portal.einundzwanzig.space\/ch\/meetup\/meetup-events\/l\/1251","location":"Ostschweiz","description":"Wir treffen uns jeden ersten Freitag irgendwo in der Ostschweiz in lockerer Stammtischrunde um \u00fcber die neuesten Bitcoin Ereignissen und Entwicklungen zu reden.\n\nAnf\u00e4nger sind jederzeit willkommen.\n\nWir zeigen wie man eine Bitcoin Wallet installiert und die ersten Satoshis (Bruchteile von Bitcoin) erh\u00e4lt.","link":"https:\/\/www.meetup.com\/de-DE\/einundzwanzig-bitcoin-meetup-schweiz\/","attendees":0,"nostr_note":"2c1e09cebecf41cebf44ea04fb9f3856fbf7a0bff4801dda26191f0320309350"},"intro":null,"logo":null},{"name":"Einundzwanzig Braunschweig","portalLink":"https:\/\/portal.einundzwanzig.space\/de\/meetup\/einundzwanzig-braunschweig","url":"https:\/\/t.me\/+GINFRPFsV05hOWMy","top":null,"left":null,"country":"DE","state":null,"city":"Braunschweig","longitude":10.52642,"latitude":52.264149,"twitter_username":null,"website":null,"simplex":null,"signal":null,"nostr":null,"next_event":null,"intro":null,"logo":null},{"name":"Bitcoin Karlsruhe","portalLink":"https:\/\/portal.einundzwanzig.space\/de\/meetup\/bitcoin-karlsruhe","url":"https:\/\/www.meetup.com\/BitcoinKarlsruhe\/","top":63,"left":25,"country":"DE","state":["Baden-W\u00fcrttemberg"],"city":"Karlsruhe","longitude":8.4034195,"latitude":49.0068705,"twitter_username":null,"website":null,"simplex":null,"signal":null,"nostr":null,"next_event":null,"intro":null,"logo":null},{"name":"Einundzwanzig Darmstadt","portalLink":"https:\/\/portal.einundzwanzig.space\/de\/meetup\/einundzwanzig-darmstadt","url":"https:\/\/t.me\/einundzwanzigda","top":53,"left":26,"country":"DE","state":["Hessen"],"city":"Darmstadt","longitude":8.6736295,"latitude":49.8851869,"twitter_username":null,"website":null,"simplex":null,"signal":null,"nostr":null,"next_event":null,"intro":null,"logo":null},{"name":"Einundzwanzig Ellwangen","portalLink":"https:\/\/portal.einundzwanzig.space\/de\/meetup\/einundzwanzig-ellwangen","url":"https:\/\/t.me\/einundzwanzigEllwangen","top":64,"left":40,"country":"DE","state":["Baden-W\u00fcrttemberg"],"city":"Ellwangen","longitude":10.131975,"latitude":48.9615975,"twitter_username":null,"website":null,"simplex":null,"signal":null,"nostr":null,"next_event":{"start":"2025-01-03 17:30:00","portalLink":"https:\/\/portal.einundzwanzig.space\/de\/meetup\/meetup-events\/l\/1683","location":" Ellwangen","description":"Bistro Altstadt Ellwangen","link":"https:\/\/www.bistro-altstadt.de\/bistro_neu\/","attendees":1,"nostr_note":"fa8135a66b2bac7bc8dde16e755c92a80c0d489c627117579d1c9db7981a47ff"},"intro":null,"logo":null},{"name":"Einundzwanzig Pfarrkirchen (Rottal-Inn)","portalLink":"https:\/\/portal.einundzwanzig.space\/de\/meetup\/einundzwanzig-pfarrkirchen-rottal-inn","url":"https:\/\/t.me\/BTCPAN","top":68,"left":65,"country":"DE","state":["Bayern"],"city":"Pfarrkirchen","longitude":12.9386266,"latitude":48.4320329,"twitter_username":"","website":null,"simplex":null,"signal":null,"nostr":null,"next_event":null,"intro":null,"logo":null},{"name":"Einundzwanzig Sch\u00e4rding","portalLink":"https:\/\/portal.einundzwanzig.space\/at\/meetup\/einundzwanzig-schaerding","url":"https:\/\/t.me\/Einundzwanzig_Passau","top":null,"left":null,"country":"AT","state":null,"city":"Sch\u00e4rding","longitude":13.449814,"latitude":48.456575,"twitter_username":null,"website":null,"simplex":null,"signal":null,"nostr":null,"next_event":{"start":"2025-01-18 17:30:00","portalLink":"https:\/\/portal.einundzwanzig.space\/at\/meetup\/meetup-events\/l\/1234","location":"Passau oder Sch\u00e4rding","description":"39. Meetup der Passauer und Sch\u00e4rdinger Plebs - kommt in die Gruppe um den Ort zu erfahren. Wir wechseln immer zwischen den Gastst\u00e4tten","link":null,"attendees":0,"nostr_note":"970f0c225287deef76865ce8da038f521aba868cc80ade491203ff7425405564"},"intro":null,"logo":null},{"name":"Einundzwanzig Franken","portalLink":"https:\/\/portal.einundzwanzig.space\/de\/meetup\/einundzwanzig-franken","url":"https:\/\/t.me\/Einundzwanzig_FRANKEN","top":59,"left":52,"country":"DE","state":["Bayern"],"city":"Franken","longitude":11.011961,"latitude":49.589674,"twitter_username":"einundzwanzigFR","website":null,"simplex":null,"signal":null,"nostr":null,"next_event":null,"intro":null,"logo":null},{"name":"Einundzwanzig K\u00f6ln","portalLink":"https:\/\/portal.einundzwanzig.space\/de\/meetup\/einundzwanzig-koeln","url":"https:\/\/t.me\/einundzwanzig_koeln","top":42,"left":17,"country":"DE","state":["Nordrhein-Westfalen"],"city":"K\u00f6ln","longitude":6.959974,"latitude":50.938361,"twitter_username":null,"website":null,"simplex":null,"signal":null,"nostr":null,"next_event":null,"intro":null,"logo":null},{"name":"Einundzwanzig Siegen","portalLink":"https:\/\/portal.einundzwanzig.space\/de\/meetup\/einundzwanzig-siegen","url":"https:\/\/t.me\/einundzwanzig_siegen","top":43,"left":23,"country":"DE","state":["Nordrhein-Westfalen"],"city":"Siegen","longitude":8.0227233,"latitude":50.8749804,"twitter_username":"Bitcoinizer","website":null,"simplex":null,"signal":null,"nostr":null,"next_event":null,"intro":null,"logo":null},{"name":"Einundzwanzig Wiesbaden","portalLink":"https:\/\/portal.einundzwanzig.space\/de\/meetup\/einundzwanzig-wiesbaden","url":"https:\/\/t.me\/einundzwanzigwiesbaden","top":50,"left":20,"country":"DE","state":["Hessen"],"city":"Wiesbaden","longitude":8.2416556,"latitude":50.0820384,"twitter_username":null,"website":null,"simplex":"https:\/\/simplex.chat\/contact#\/?v=2-7&smp=smp%3A%2F%2Fh--vW7ZSkXPeOUpfxlFGgauQmXNFOzGoizak7Ult7cw%3D%40smp15.simplex.im%2F2Pk4ji8x2GascizFAYmFNzNloZjUJ6Pt%23%2F%3Fv%3D1-3%26dh%3DMCowBQYDK2VuAyEA0H8Cf4-o8Yn6MtvH-h_7VBQvbTyv5WR_TwkWH-b8ZXM%253D%26srv%3Doauu4bgijybyhczbnxtlggo6hiubahmeutaqineuyy23aojpih3dajad.onion&data=%7B%22type%22%3A%22group%22%2C%22groupLinkId%22%3A%225_Z2smq6_umjQ9bESuWV3A%3D%3D%22%7D","signal":"https:\/\/signal.group\/#CjQKIBflcCybBfJCpTV5fx_U1ZklI2MKqyYy5LeaZMgVGvrTEhClKJ6HvxsfSdV8o8FBNbRQ","nostr":null,"next_event":null,"intro":null,"logo":null},{"name":"Bitcoin Leipzig","portalLink":"https:\/\/portal.einundzwanzig.space\/de\/meetup\/bitcoin-leipzig","url":"https:\/\/www.meetup.com\/de-DE\/Leipziger-Bitcoin-Stammtisch\/","top":37,"left":60,"country":"DE","state":["Sachsen"],"city":"Leipzig","longitude":12.3747329,"latitude":51.3406321,"twitter_username":null,"website":null,"simplex":null,"signal":null,"nostr":null,"next_event":null,"intro":null,"logo":null},{"name":"Einundzwanzig Essen","portalLink":"https:\/\/portal.einundzwanzig.space\/de\/meetup\/einundzwanzig-essen","url":"https:\/\/t.me\/Einundzwanzig_Ruhrgebiet","top":35,"left":20,"country":"DE","state":["Nordrhein-Westfalen"],"city":"Essen","longitude":7.0158171,"latitude":51.4582235,"twitter_username":null,"website":null,"simplex":null,"signal":null,"nostr":null,"next_event":null,"intro":null,"logo":null},{"name":"Einundzwanzig Nordfriesland","portalLink":"https:\/\/portal.einundzwanzig.space\/de\/meetup\/einundzwanzig-nordfriesland","url":"https:\/\/t.me\/Einundzwanzig_NF","top":1,"left":34,"country":"DE","state":["Schleswig-Holstein"],"city":"Husum","longitude":9.05362,"latitude":54.485378,"twitter_username":null,"website":null,"simplex":null,"signal":null,"nostr":null,"next_event":null,"intro":null,"logo":null},{"name":"Kalmar Bitcoin MeetUp","portalLink":"https:\/\/portal.einundzwanzig.space\/se\/meetup\/kalmar-bitcoin-meetup","url":"https:\/\/www.eventbrite.de\/e\/kalmar-bitcoin-open-blockchain-meetup-tickets-644994053577","top":null,"left":null,"country":"SE","state":null,"city":"Kalmar, Sverige","longitude":16.36272,"latitude":56.661449,"twitter_username":null,"website":"https:\/\/www.eventbrite.de\/e\/kalmar-bitcoin-open-blockchain-meetup-tickets-644994053577","simplex":null,"signal":null,"nostr":"note1m9wc7285ehvy7kjac98c8jzhz0dse60saapkar6f8hfgaq96rjasukpfmu","next_event":null,"intro":null,"logo":null},{"name":"Einundzwanzig Mainz","portalLink":"https:\/\/portal.einundzwanzig.space\/de\/meetup\/einundzwanzig-mainz","url":"https:\/\/t.me\/Einundzwanzig_MAINZ","top":55,"left":24,"country":"DE","state":["Rheinland-Pfalz"],"city":"Mainz","longitude":8.2762513,"latitude":50.0012314,"twitter_username":"@EinundzwanzigMZ","website":null,"simplex":null,"signal":null,"nostr":"npub16aaqhqyryr3tuyq208whklngdulm754zukpfgf2g34dkd023uysqz6r9kr","next_event":null,"intro":null,"logo":null},{"name":"Einundzwanzig Ost-Brandenburg Altlandsberg","portalLink":"https:\/\/portal.einundzwanzig.space\/de\/meetup\/einundzwanzig-ost-brandenburg-altlandsberg","url":"https:\/\/t.me\/einundzwanzig_bbost","top":null,"left":null,"country":"DE","state":null,"city":"Altlandsberg","longitude":13.697406152587,"latitude":52.552804852094,"twitter_username":null,"website":"https:\/\/portal.einundzwanzig.space\/de\/meetup\/einundzwanzig-ost-brandenburg?l=de","simplex":null,"signal":null,"nostr":null,"next_event":null,"intro":null,"logo":null},{"name":"Einundzwanzig Oldenburg","portalLink":"https:\/\/portal.einundzwanzig.space\/de\/meetup\/einundzwanzig-oldenburg","url":"https:\/\/t.me\/einundzwanzig_OL","top":18,"left":27,"country":"DE","state":["Niedersachsen"],"city":"Oldenburg","longitude":8.2146017,"latitude":53.1389753,"twitter_username":null,"website":null,"simplex":"gibt's auf'm Meetup","signal":null,"nostr":"npub10ldent6aecfgy74ayd65qad5c4ryyam9fv7e8w5xyjfy5zrnlm2qtc8vj0","next_event":{"start":"2025-01-03 18:00:00","portalLink":"https:\/\/portal.einundzwanzig.space\/de\/meetup\/meetup-events\/l\/1425","location":"Restaurant KRETA, Nadorster Str. 53","description":"Zahlung momentan nur in Euro.","link":"https:\/\/t.me\/einundzwanzig_OL","attendees":0,"nostr_note":"9cb5b902fbd3a22fc3c7d6d180e7876e21bd4c1f1078500fba03aa06369cbd09"},"intro":null,"logo":null},{"name":"Dwadzi\u015bcia Jedyn Katowice","portalLink":"https:\/\/portal.einundzwanzig.space\/pl\/meetup\/dwadziscia-jedyn-katowice","url":"https:\/\/t.me\/DwadziesciaJedenPoznan","top":null,"left":null,"country":"PL","state":null,"city":"Katowice","longitude":19.0238,"latitude":50.2649,"twitter_username":null,"website":"https:\/\/dwadziesciajeden.pl\/","simplex":null,"signal":null,"nostr":null,"next_event":null,"intro":null,"logo":null},{"name":"Einundzwanzig Alsfeld","portalLink":"https:\/\/portal.einundzwanzig.space\/de\/meetup\/einundzwanzig-alsfeld","url":"https:\/\/t.me\/einundzwanzig_vb","top":null,"left":null,"country":"DE","state":null,"city":"Alsfeld","longitude":9.27063,"latitude":50.752769,"twitter_username":"EinundzwanzigVB","website":"","simplex":null,"signal":null,"nostr":null,"next_event":{"start":"2025-01-14 17:30:00","portalLink":"https:\/\/portal.einundzwanzig.space\/de\/meetup\/meetup-events\/l\/1780","location":"Zum Schwalbennest, Pfarrwiesenweg 12, 36304 Alsfeld","description":"Unser n\u00e4chstes Meetup findet am 14.01.25 ab 18:30 wieder im Restaurant \u201eZum Schwalbennest\u201c Pfarrwiesenweg 12, 36304 Alsfeld statt. \nTeilnahme bitte \u00fcber Telegram oder im Portal best\u00e4tigen\/mitteilen um entsprechend reservieren zu k\u00f6nnen.","link":"https:\/\/hotel-schwalbennest.de\/","attendees":1,"nostr_note":"b428ee7130393ad1cbe48f78a5abf392c2d052dce1f064457f9940600824408c"},"intro":null,"logo":null},{"name":"einundzwanzig Ludwigsburg ","portalLink":"https:\/\/portal.einundzwanzig.space\/de\/meetup\/einundzwanzig-ludwigsburg","url":"https:\/\/t.me\/einundzwanzigLudwigsburg","top":null,"left":null,"country":"DE","state":null,"city":"Ludwigsburg ","longitude":9.19161,"latitude":48.89731,"twitter_username":"einundzwanzigLB","website":null,"simplex":null,"signal":null,"nostr":null,"next_event":null,"intro":null,"logo":null},{"name":"Bitcoin Dresden","portalLink":"https:\/\/portal.einundzwanzig.space\/de\/meetup\/bitcoin-dresden","url":"https:\/\/t.me\/BitcoinDresden","top":40,"left":69,"country":"DE","state":["Sachsen"],"city":"Dresden","longitude":13.7381437,"latitude":51.0493286,"twitter_username":null,"website":"https:\/\/www.meetup.com\/de-DE\/Dresdner-Bitcoin-Stammtisch","simplex":null,"signal":null,"nostr":null,"next_event":null,"intro":null,"logo":null},{"name":"Einundzwanzig Remstal ","portalLink":"https:\/\/portal.einundzwanzig.space\/de\/meetup\/einundzwanzig-remstal","url":"https:\/\/t.me\/+t-pJwLAQ-ss1Y2Iy","top":null,"left":null,"country":"DE","state":null,"city":"Remstal","longitude":9.31957,"latitude":48.806591,"twitter_username":"21Remstal","website":"https:\/\/twitter.com\/21Remstal","simplex":null,"signal":null,"nostr":"https:\/\/t.me\/+t-pJwLAQ-ss1Y2Iy","next_event":{"start":"2025-01-01 17:20:00","portalLink":"https:\/\/portal.einundzwanzig.space\/de\/meetup\/meetup-events\/l\/1147","location":null,"description":null,"link":null,"attendees":0,"nostr_note":"fa3d6a5ec22287d1576f87444dd18778b5c91ad33c2a3c7a79b5ca51b3e33930"},"intro":null,"logo":null},{"name":"Bitcoin Burgdorf","portalLink":"https:\/\/portal.einundzwanzig.space\/ch\/meetup\/bitcoin-burgdorf","url":"https:\/\/www.meetup.com\/de-DE\/bitcoin-bern\/events\/293293252\/","top":null,"left":null,"country":"CH","state":null,"city":"Burgdorf","longitude":7.62881,"latitude":47.057869,"twitter_username":null,"website":"https:\/\/www.meetup.com\/de-DE\/bitcoin-bern\/events\/293293252\/","simplex":null,"signal":null,"nostr":null,"next_event":null,"intro":null,"logo":null},{"name":"BTC Schwyz ","portalLink":"https:\/\/portal.einundzwanzig.space\/ch\/meetup\/btc-schwyz","url":"https:\/\/www.instagram.com\/bergbeiz_adlerhorst_oberiberg\/","top":null,"left":null,"country":"CH","state":null,"city":"Oberiberg","longitude":8.78711,"latitude":47.04084,"twitter_username":"Bitcoin_Chalet","website":"https:\/\/www.instagram.com\/bergbeiz_adlerhorst_oberiberg\/","simplex":null,"signal":null,"nostr":null,"next_event":null,"intro":null,"logo":null},{"name":"Einundzwanzig Hannover \u20bf","portalLink":"https:\/\/portal.einundzwanzig.space\/de\/meetup\/einundzwanzig-hannover","url":"https:\/\/t.me\/+RSXEIZ_xoq1lNDM6","top":27,"left":37,"country":"DE","state":["Niedersachsen"],"city":"Hannover","longitude":9.73201,"latitude":52.375893,"twitter_username":null,"website":null,"simplex":null,"signal":null,"nostr":null,"next_event":{"start":"2024-12-25 18:00:00","portalLink":"https:\/\/portal.einundzwanzig.space\/de\/meetup\/meetup-events\/l\/1595","location":"H\u00f6festr. 25 im Keller","description":"Einundzwanzig Hannover \u20bf - Plebs together strong \ud83d\udcaa\nOffene Gruppe f\u00fcr \u20bf in Hannover. https:\/\/t.me\/+RSXEIZ_xoq1lNDM6 Treffen f\u00fcr Vortr\u00e4ge zum Thema \u20bf: Jeden Bitwoch Ende des Monats um 19 Uhr, in der H\u00f6festr. 25 im Keller. \n\u20bf, die einzige Alternative zum Zentralismus ohne Staat\/Bank.","link":"https:\/\/maps.app.goo.gl\/DWEoNTzEgWkU85vN9","attendees":0,"nostr_note":"807cd300d5ba1637a89a5bd3b16e300e5b6bd0df6341bc164e46f07a6ac8cfb8"},"intro":null,"logo":null},{"name":"21 Zitadelle Uckermark","portalLink":"https:\/\/portal.einundzwanzig.space\/de\/meetup\/21-zitadelle-uckermark","url":null,"top":null,"left":null,"country":"DE","state":null,"city":"Templin","longitude":13.50449,"latitude":53.1175,"twitter_username":"zitadelleum","website":null,"simplex":null,"signal":null,"nostr":"npub13lk6l8tnxfp76x3qxed2h5qlxc3694eha9glc7v2x8mmxtekdlnqcfmax8","next_event":null,"intro":null,"logo":null},{"name":"Aschaffenburg","portalLink":"https:\/\/portal.einundzwanzig.space\/de\/meetup\/aschaffenburg","url":"https:\/\/t.me\/einundzwanzig_aschaffenburg","top":null,"left":null,"country":"DE","state":null,"city":"Aschaffenburg","longitude":9.14901,"latitude":49.973019,"twitter_username":null,"website":null,"simplex":null,"signal":null,"nostr":null,"next_event":null,"intro":null,"logo":null},{"name":"EINUNDZWANZIG Bochum","portalLink":"https:\/\/portal.einundzwanzig.space\/de\/meetup\/einundzwanzig-bochum","url":"https:\/\/t.me\/+QjpROn0ZuM5jMTQ6","top":null,"left":null,"country":"DE","state":null,"city":"Bochum","longitude":7.216236,"latitude":51.481846,"twitter_username":null,"website":null,"simplex":null,"signal":null,"nostr":null,"next_event":null,"intro":null,"logo":null},{"name":"Einundzwanzig Odenwald","portalLink":"https:\/\/portal.einundzwanzig.space\/de\/meetup\/einundzwanzig-odenwald","url":"https:\/\/t.me\/einundzwanzigodw","top":null,"left":null,"country":"DE","state":null,"city":"Odenwald","longitude":8.96756,"latitude":49.663979,"twitter_username":null,"website":null,"simplex":null,"signal":null,"nostr":null,"next_event":null,"intro":null,"logo":null},{"name":"Einundzwanzig Pforzheim","portalLink":"https:\/\/portal.einundzwanzig.space\/de\/meetup\/einundzwanzig-pforzheim","url":"https:\/\/t.me\/EinundzwanzigPforzheim","top":null,"left":null,"country":"DE","state":null,"city":"Pforzheim","longitude":8.70493,"latitude":48.893379,"twitter_username":"EinundzwanzigP","website":"https:\/\/t.me\/EinundzwanzigPforzheim","simplex":null,"signal":null,"nostr":null,"next_event":null,"intro":null,"logo":null},{"name":"Einundzwanzig Bremerhaven","portalLink":"https:\/\/portal.einundzwanzig.space\/de\/meetup\/einundzwanzig-bremerhaven","url":"https:\/\/t.me\/+SyB9Juv1onk2MjMy","top":null,"left":null,"country":"DE","state":null,"city":"Bremerhaven","longitude":8.58338,"latitude":53.538792,"twitter_username":null,"website":null,"simplex":null,"signal":null,"nostr":null,"next_event":null,"intro":null,"logo":null},{"name":"Einundzwanzig Autobahn A9","portalLink":"https:\/\/portal.einundzwanzig.space\/at\/meetup\/einundzwanzig-autobahn-a9","url":"","top":null,"left":null,"country":"AT","state":null,"city":"Graz","longitude":15.4382786,"latitude":47.0708678,"twitter_username":"einundzwanzig_a9","website":"","simplex":null,"signal":null,"nostr":null,"next_event":null,"intro":null,"logo":null},{"name":"Einundzwanzig Schwarzwald-Baar","portalLink":"https:\/\/portal.einundzwanzig.space\/de\/meetup\/einundzwanzig-schwarzwald-baar","url":"http:\/\/t.me\/einundzwanzigsbk","top":null,"left":null,"country":"DE","state":null,"city":"Schwarzwald-Baar-Kreis","longitude":8.493957,"latitude":47.977421,"twitter_username":"derflx","website":null,"simplex":null,"signal":null,"nostr":null,"next_event":null,"intro":null,"logo":null},{"name":"W\u00fcrzburg ","portalLink":"https:\/\/portal.einundzwanzig.space\/de\/meetup\/wuerzburg","url":"https:\/\/t.me\/einundzwanzig_wuerzburg","top":null,"left":null,"country":"DE","state":null,"city":"W\u00fcrzburg ","longitude":9.953355,"latitude":49.791306,"twitter_username":null,"website":null,"simplex":null,"signal":null,"nostr":null,"next_event":null,"intro":null,"logo":null},{"name":"Einundzwanzig Fehmarn","portalLink":"https:\/\/portal.einundzwanzig.space\/de\/meetup\/einundzwanzig-fehmarn","url":"https:\/\/t.me\/Einundzwanzig_Bitcoin_Fehmarn","top":null,"left":null,"country":"DE","state":null,"city":"Fehmarn","longitude":11.19668,"latitude":54.43562,"twitter_username":"OH_Bitcoin","website":"https:\/\/portal.einundzwanzig.space\/de\/meetup\/einundzwanzig-fehmarn?l=de","simplex":null,"signal":null,"nostr":null,"next_event":null,"intro":null,"logo":null},{"name":"Einundzwanzig Zollern-Alb-Kreis (Balingen)","portalLink":"https:\/\/portal.einundzwanzig.space\/de\/meetup\/einundzwanzig-zollern-alb-kreis-balingen","url":"https:\/\/t.me\/+wNgJ6sTsTOljMjFi","top":71,"left":27,"country":"DE","state":["Baden-W\u00fcrttemberg"],"city":"Balingen","longitude":8.85511,"latitude":48.27549,"twitter_username":null,"website":null,"simplex":null,"signal":null,"nostr":null,"next_event":null,"intro":null,"logo":null},{"name":"Bussen","portalLink":"https:\/\/portal.einundzwanzig.space\/de\/meetup\/bussen","url":"https:\/\/t.me\/+Aywy5oJoa4k4N2Qy","top":null,"left":null,"country":"DE","state":null,"city":"Aderzhofen\/Bussen","longitude":9.5666667,"latitude":48.1666667,"twitter_username":null,"website":"https:\/\/t.me\/+Aywy5oJoa4k4N2Qy","simplex":null,"signal":null,"nostr":null,"next_event":null,"intro":null,"logo":null},{"name":"Bitcoin Berlin","portalLink":"https:\/\/portal.einundzwanzig.space\/de\/meetup\/bitcoin-berlin","url":"https:\/\/t.me\/Einundzwanzig_Berlin","top":25,"left":65,"country":"DE","state":["Berlin"],"city":"Bitcoin Berlin","longitude":13.411951,"latitude":52.404765,"twitter_username":null,"website":"https:\/\/www.meetup.com\/de-DE\/Bitcoin-Lab-Berlin\/","simplex":null,"signal":null,"nostr":null,"next_event":null,"intro":null,"logo":null},{"name":"MK_Einundzwanzig","portalLink":"https:\/\/portal.einundzwanzig.space\/de\/meetup\/mk-einundzwanzig","url":"t.me\/MK_Einundzwanzig","top":null,"left":null,"country":"DE","state":null,"city":"M\u00e4rkischer Kreis","longitude":7.68421,"latitude":51.27351,"twitter_username":null,"website":null,"simplex":null,"signal":null,"nostr":null,"next_event":null,"intro":null,"logo":null},{"name":"EINUNDZWANZIG Meetup Wieselburg","portalLink":"https:\/\/portal.einundzwanzig.space\/at\/meetup\/einundzwanzig-meetup-wieselburg","url":"https:\/\/t.me\/einundzwanzigwieselburg","top":null,"left":null,"country":"AT","state":null,"city":"Wieselburg an der Erlauf","longitude":15.13862,"latitude":48.13062,"twitter_username":"BTCwieselburg","website":null,"simplex":null,"signal":null,"nostr":null,"next_event":null,"intro":null,"logo":null},{"name":"Dwadzie\u015bcia Jeden Pozna\u0144","portalLink":"https:\/\/portal.einundzwanzig.space\/pl\/meetup\/dwadziescia-jeden-poznan","url":"https:\/\/t.me\/DwadziesciaJedenPoznan","top":null,"left":null,"country":"PL","state":null,"city":"Pozna\u0144","longitude":16.925167,"latitude":52.406376,"twitter_username":null,"website":"https:\/\/dwadziesciajeden.pl\/","simplex":null,"signal":null,"nostr":null,"next_event":null,"intro":null,"logo":null},{"name":"Einundzwanzig Grenzland","portalLink":"https:\/\/portal.einundzwanzig.space\/de\/meetup\/einundzwanzig-grenzland","url":"https:\/\/primal.net\/p\/npub12dfql00r4rnttt8u683rsq76ydaf7jha5n5hzpshgl6n5mly2rrqvd2ztq","top":null,"left":null,"country":"DE","state":null,"city":"Grenzland DE\/NL","longitude":6.213012,"latitude":51.401305,"twitter_username":null,"website":"https:\/\/primal.net\/p\/npub12dfql00r4rnttt8u683rsq76ydaf7jha5n5hzpshgl6n5mly2rrqvd2ztq","simplex":"","signal":null,"nostr":"npub12dfql00r4rnttt8u683rsq76ydaf7jha5n5hzpshgl6n5mly2rrqvd2ztq","next_event":null,"intro":null,"logo":null},{"name":"Dwadzie\u015bcia Jeden Warszawa","portalLink":"https:\/\/portal.einundzwanzig.space\/pl\/meetup\/dwadziescia-jeden-warszawa","url":"https:\/\/t.me\/DwadziesciaJeden","top":null,"left":null,"country":"PL","state":null,"city":"Warszawa","longitude":21.01223,"latitude":52.229675,"twitter_username":"21BitcoinPolska","website":"https:\/\/dwadziesciajeden.pl\/","simplex":null,"signal":null,"nostr":"npub1cpmvpsqtzxl4px44dp4544xwgu0ryv2lscl3qexq42dfakuza02s4fsapc","next_event":null,"intro":null,"logo":null},{"name":"Einundzwanzig Oberland","portalLink":"https:\/\/portal.einundzwanzig.space\/de\/meetup\/einundzwanzig-oberland","url":"https:\/\/t.me\/Einundzwanzig_Oberland","top":79,"left":49,"country":"DE","state":["Bayern"],"city":"Oberland (Weilheim \/ Bad T\u00f6lz \/ Murnau)","longitude":11.137705,"latitude":47.834592,"twitter_username":null,"website":null,"simplex":null,"signal":null,"nostr":null,"next_event":null,"intro":null,"logo":null},{"name":"Einundzwanzig Detmold\/Lippe","portalLink":"https:\/\/portal.einundzwanzig.space\/de\/meetup\/einundzwanzig-detmoldlippe","url":"https:\/\/t.me\/+7wvp3JzN6fJiNmZi","top":null,"left":null,"country":"DE","state":null,"city":"Einundzwanzig Detmold\/Lippe","longitude":8.87384,"latitude":51.935398,"twitter_username":null,"website":null,"simplex":null,"signal":null,"nostr":null,"next_event":{"start":"2025-01-04 17:00:00","portalLink":"https:\/\/portal.einundzwanzig.space\/de\/meetup\/meetup-events\/l\/1724","location":"Detmold, Cafe Mix, Meierstr. 12","description":null,"link":null,"attendees":0,"nostr_note":"163333e3524db6c4b2627758da327ae657bcc96bee9896ca3d0e7f4a81163957"},"intro":null,"logo":null},{"name":"Einundzwanzig Rheinhessen","portalLink":"https:\/\/portal.einundzwanzig.space\/de\/meetup\/einundzwanzig-rheinhessen","url":"https:\/\/t.me\/EinundzwanzigRHH","top":null,"left":null,"country":"DE","state":null,"city":"Rhoihesse","longitude":8.0347486,"latitude":49.7842147,"twitter_username":"einundzwanzigrh","website":null,"simplex":null,"signal":null,"nostr":"npub109ze7nlkz3wvn5rzu9w2rm5r8788gyfrrqdw4em70zxp4a0g035sqpr0ww","next_event":null,"intro":null,"logo":null},{"name":"Bitcoin M\u00fcnchen","portalLink":"https:\/\/portal.einundzwanzig.space\/de\/meetup\/bitcoin-muenchen","url":"https:\/\/t.me\/joinchat\/CYllaksSLloRHorac85fIQ","top":72,"left":53,"country":"DE","state":["Bayern"],"city":"M\u00fcnchen (80807)","longitude":11.60402,"latitude":48.17944,"twitter_username":"bitcoinmuc","website":"https:\/\/www.meetup.com\/Bitcoin-Munich\/","simplex":null,"signal":null,"nostr":"npub1j067r9nj4hpsw3wk74pjqme4qw7hq485285rytadjq2sd0hcnv4s9naj84","next_event":null,"intro":null,"logo":null},{"name":"Einundzwanzig Bad Kissingen ","portalLink":"https:\/\/portal.einundzwanzig.space\/de\/meetup\/einundzwanzig-bad-kissingen","url":"https:\/\/t.me\/+qohdhScRIk05MjYy","top":null,"left":null,"country":"DE","state":null,"city":"Bad Kissingen","longitude":10.0804,"latitude":50.2007,"twitter_username":"SunshineFreak","website":null,"simplex":null,"signal":null,"nostr":null,"next_event":null,"intro":null,"logo":null},{"name":"Einundzwanzig Rottweil","portalLink":"https:\/\/portal.einundzwanzig.space\/de\/meetup\/einundzwanzig-rottweil","url":"https:\/\/t.me\/+AeVduvFdbag0NTEy","top":null,"left":null,"country":"DE","state":null,"city":"Rottweil","longitude":8.602078,"latitude":48.25322,"twitter_username":null,"website":null,"simplex":null,"signal":null,"nostr":null,"next_event":{"start":"2025-01-17 17:00:00","portalLink":"https:\/\/portal.einundzwanzig.space\/de\/meetup\/meetup-events\/l\/1779","location":"Gasthof Adler in Dietingen, RW","description":null,"link":null,"attendees":0,"nostr_note":"cce55dcb28d618b464624a362b444020c904c8902aba1eccd68c8fbdaca92ab2"},"intro":null,"logo":null},{"name":"Einundzwanzig Ulm","portalLink":"https:\/\/portal.einundzwanzig.space\/de\/meetup\/einundzwanzig-ulm","url":"https:\/\/t.me\/Einundzwandig_Ulm","top":null,"left":null,"country":"DE","state":null,"city":"Ulm","longitude":9.9934336,"latitude":48.3974003,"twitter_username":null,"website":null,"simplex":null,"signal":null,"nostr":null,"next_event":null,"intro":null,"logo":null},{"name":"Einundzwanzig Meetup D\u00fcsseldorf","portalLink":"https:\/\/portal.einundzwanzig.space\/de\/meetup\/einundzwanzig-meetup-duesseldorf","url":"https:\/\/t.me\/einundzwanzig_duesseldorf","top":null,"left":null,"country":"DE","state":null,"city":"D\u00fcsseldorf","longitude":6.7763137,"latitude":51.2254018,"twitter_username":null,"website":null,"simplex":"https:\/\/simplex.chat\/contact#\/?v=2-4&smp=smp%3A%2F%2Fh--vW7ZSkXPeOUpfxlFGgauQmXNFOzGoizak7Ult7cw%3D%40smp15.simplex.im%2FJNgIf3cqvv5ljpQe5DfPpIxWWIBGMHFz%23%2F%3Fv%3D1-2%26dh%3DMCowBQYDK2VuAyEAdyNh9Oqzj0YSSWpu5IcWdgMUz904TZgJTA9tpYiFVQs%253D%26srv%3Doauu4bgijybyhczbnxtlggo6hiubahmeutaqineuyy23aojpih3dajad.onion&data=%7B%22type%22%3A%22group%22%2C%22groupLinkId%22%3A%22b1K0e2ScYwCvjL_HSxI__Q%3D%3D%22%7D","signal":null,"nostr":null,"next_event":null,"intro":null,"logo":null},{"name":"Einundzwanzig Lingen","portalLink":"https:\/\/portal.einundzwanzig.space\/de\/meetup\/einundzwanzig-lingen","url":"https:\/\/t.me\/+9cxpb5YyGAg1NDNi","top":null,"left":null,"country":"DE","state":null,"city":"Lingen","longitude":7.32328,"latitude":52.52306,"twitter_username":null,"website":null,"simplex":null,"signal":null,"nostr":null,"next_event":null,"intro":null,"logo":null},{"name":"Einundzwanzig Dortmund","portalLink":"https:\/\/portal.einundzwanzig.space\/de\/meetup\/einundzwanzig-dortmund","url":"https:\/\/t.me\/Dortmund_Einundzwanzig_Bitcoin","top":34,"left":24,"country":"DE","state":["Nordrhein-Westfalen"],"city":"Dortmund","longitude":7.4652789,"latitude":51.5142273,"twitter_username":null,"website":null,"simplex":null,"signal":null,"nostr":null,"next_event":null,"intro":null,"logo":null},{"name":"Einundzwanzig L\u00fcbeck","portalLink":"https:\/\/portal.einundzwanzig.space\/de\/meetup\/einundzwanzig-luebeck","url":"https:\/\/t.me\/Einundzwanzig_Luebeck","top":11,"left":45,"country":"DE","state":["Hamburg"],"city":"L\u00fcbeck","longitude":10.686559,"latitude":53.865467,"twitter_username":"","website":"https:\/\/www.bitcoin-luebeck.de","simplex":"","signal":null,"nostr":"","next_event":null,"intro":null,"logo":null},